33,,’Š’Ššbbb
©77
$GPVTG,,T,,M,0.033,N,0.060,K,A*25
$GPGGA,105739.00,3946.88813,N,03249.26142,E,1,06,1.79,1032.0,M,35.7,M,,*60
$GPGSA,A,3,27,03,14,11,32,19,,,,,,,3.77,1.79,3.32*06
$GPGSV,4,1,14,01,14,297,,03,54,217,32,06,45,186,,11,33,304,45*78
$GPGSV,4,2,14,14,56,117,34,16,01,207,,18,17,059,,19,64,276,47*76
$GPGSV,4,3,14,21,04,108,19,22,,,49,24,03,044,,27,55,193,26*4F
$GPGSV,4,4,14,28,02,330,,32,27,245,29*78
$GPGLL,3946.88813,N,03249.26142,E,105739.00,A,A*6D
$GPRMC,105740.00,A,3946.88818,N,03249.26139,E,0.035,,021213,,,A*78
$GPVTG,,T,,M,0.035,N,0.064,K,A*27
$GPGGA,105740.00,3946.88818,N,03249.26139,E,1,06,1.79,1032.1,M,35.7,M,,*68
$GPGSA,A,3,27,03,14,11,32,19,,,,,,,3.77,1.79,3.32*06
$GPGSV,4,1,14,01,14,297,,03,54,217,32,06,45,186,,11,33,304,45*78
$GPGSV,4,2,14,14,56,117,34,16,01,207,,18,17,059,,19,64,276,47*76
$GPGSV,4,3,14,21,04,108,20,22,,,49,24,03,044,,27,55,193,26*45
$GPGSV,4,4,14,28,02,330,,32,27,245,28*79
$GPGLL,3946.88818,N,03249.26139,E,105740.00,A,A*64
$GPRMC,105741.00,A,3946.88831,N,03249.26152,E,0.084,,021213,,,A*75
$GPVTG,,T,,M,0.084,N,0.155,K,A*2E
$GPGGA,105741.00,3946.88831,N,03249.26152,E,1,05,1.88,1032.2,M,35.7,M,,*61
$GPGSA,A,3,03,14,11,32,19,,,,,,,,3.86,1.88,3.37*06
$GPGSV,4,1,14,01,14,297,,03,54,217,35,06,45,186,,11,33,304,46*7C
$GPGSV,4,2,14,14,56,117,32,16,01,207,,18,17,059,,19,64,276,49*7E
$GPGSV,4,3,14,21,04,108,19,22,,,49,24,03,044,,27,55,193,*4B
$GPGSV,4,4,14,28,02,330,,32,27,245,34*74
$GPGLL,3946.88831,N,03249.26152,E,105741.00,A,A*63
$GPRMC,105742.00,A,3946.88840,N,03249.26175,E,0.111,,021213,,,A*78
$GPVTG,,T,,M,0.111,N,0.206,K,A*26
$GPGGA,105742.00,3946.88840,N,03249.26175,E,1,06,1.88,1032.2,M,35.7,M,,*62
$GPGSA,A,3,03,14,06,11,32,19,,,,,,,3.86,1.88,3.37*00
$GPGSV,4,1,14,01,14,297,,03,54,217,31,06,45,186,23,11,33,304,44*7B
$GPGSV,4,2,14,14,56,117,36,16,01,207,,18,17,059,,19,64,276,48*7B
$GPGSV,4,3,14,21,04,108,,22,,,48,24,03,044,,27,55,193,*42
$GPGSV,4,4,14,28,02,330,,32,27,245,30*70
$GPGLL,3946.88840,N,03249.26175,E,105742.00,A,A*63
$GPRMC,105743.00,A,3946.88831,N,03249.26207,E,0.930,,021213,,,A*72
$GPVTG,,T,,M,0.930,N,1.723,K,A*2E

$GPGGA,105743.00,3946.88831,N,03249.26207,E,1,06,1.88,1032.0,M,35.7,M,,*61
$GPGSA,A,3,03,14,06,11,32,19,,,,,,,3.86,1.88,3.37*00
$GPGSV,4,1,14,01,14,297,,03,54,217,35,06,45,186,28,11,33,304,44*74
$GPGSV,4,2,14,14,56,117,47,16,01,207,,18,17,059,,19,64,276,47*72
$GPGSV,4,3,14,21,04,108,,22,,,45,24,03,044,,27,55,193,*4F
$GPGSV,4,4,14,28,02,330,,32,27,245,25*74
$GPGLL,3946.88831,N,03249.26207,E,105743.00,A,A*62
$GPRMC,105744.00,A,3946.88799,N,03249.26259,E,1.862,145.99,021213,,,A*6A
$GPVTG,145.99,T,,M,1.862,N,3.449,K,A*3A
$GPGGA,105744.00,3946.88799,N,03249.26259,E,1,07,1.69,1031.6,M,35.7,M,,*6B
$GPGSA,A,3,27,03,14,06,11,32,19,,,,,,3.64,1.69,3.23*03
$GPGSV,4,1,14,01,14,297,,03,54,217,28,06,45,186,29,11,33,304,45*78
$GPGSV,4,2,14,14,56,117,48,16,01,207,,18,17,059,,19,64,276,45*7F
$GPGSV,4,3,14,21,04,108,,22,,,44,24,03,044,,27,55,193,30*4D
$GPGSV,4,4,14,28,02,330,,32,27,245,35*75
$GPGLL,3946.88799,N,03249.26259,E,105744.00,A,A*63
$GPRMC,105745.00,A,3946.88786,N,03249.26337,E,1.978,138.60,021213,,,A*6A
$GPVTG,138.60,T,,M,1.978,N,3.664,K,A*31
$GPGGA,105745.00,3946.88786,N,03249.26337,E,1,07,1.69,1031.2,M,35.7,M,,*69
$GPGSA,A,3,27,03,14,06,11,32,19,,,,,,3.64,1.69,3.23*03
$GPGSV,4,1,14,01,14,297,40,03,54,217,36,06,45,186,33,11,33,304,46*7B
$GPGSV,4,2,14,14,56,117,46,16,01,207,,18,17,059,,19,64,276,42*76
$GPGSV,4,3,14,21,04,108,,22,,,47,24,03,044,,27,55,193,36*48
$GPGSV,4,4,14,28,02,330,,32,27,245,32*72
$GPGLL,3946.88786,N,03249.26337,E,105745.00,A,A*65
$GPRMC,105746.00,A,3946.88766,N,03249.26412,E,2.161,132.10,021213,,,A*69
$GPVTG,132.10,T,,M,2.161,N,4.003,K,A*3F
$GPGGA,105746.00,3946.88766,N,03249.26412,E,1,07,1.69,1031.3,M,35.7,M,,*65
$GPGSA,A,3,27,03,14,06,11,32,19,,,,,,3.64,1.69,3.23*03
$GPGSV,4,1,14,01,14,297,36,03,54,217,33,06,45,186,35,11,33,304,44*7B
$GPGSV,4,2,14,14,56,117,43,16,01,207,,18,17,059,,19,64,276,43*72
$GPGSV,4,3,14,21,04,108,,22,,,43,24,03,044,,27,55,193,38*42
$GPGSV,4,4,14,28,02,330,,32,27,245,38*78
$GPGLL,3946.88766,N,03249.26412,E,105746.00,A,A*68
$GPRMC,105747.00,A,3946.88750,N,03249.26494,E,2.312,123.96,021213,,,A*6B
$GPVTG,123.96,T,,M,2.312,N,4.283,K,A*3D
$GPGGA,105747.00,3946.88750,N,03249.26494,E,1,07,1.69,1031.2,M,35.7,M,,*6E
$GPGSA,A,3,27,03,14,06,11,32,19,,,,,,3.64,1.69,3.23*03
$GPGSV,4,1,14,01,14,297,33,03,54,217,37,06,45,186,36,11,33,304,41*7C
$GPGSV,4,2,14,14,56,117,43,16,01,207,,18,17,059,,19,64,276,40*71
$GPGSV,4,3,14,21,04,108,,22,,,44,24,03,044,,27,55,193,25*49

$GPGSV,4,4,14,28,02,330,,32,27,245,28*79
$GPGLL,3946.88750,N,03249.26494,E,105747.00,A,A*62
$GPRMC,105748.00,A,3946.88731,N,03249.26585,E,2.614,115.61,021213,,,A*6C
$GPVTG,115.61,T,,M,2.614,N,4.842,K,A*34
$GPGGA,105748.00,3946.88731,N,03249.26585,E,1,07,1.69,1031.3,M,35.7,M,,*66
$GPGSA,A,3,27,03,14,06,11,32,19,,,,,,3.64,1.69,3.23*03
$GPGSV,4,1,14,01,14,297,28,03,54,217,29,06,45,186,32,11,33,304,44*78
$GPGSV,4,2,14,14,56,117,45,16,01,207,,18,17,059,,19,64,276,41*76
$GPGSV,4,3,14,21,04,108,25,22,,,39,24,03,044,,27,55,193,38*48
$GPGSV,4,4,14,28,02,330,,32,27,245,36*76
$GPGLL,3946.88731,N,03249.26585,E,105748.00,A,A*6B
$GPRMC,105749.00,A,3946.88674,N,03249.26660,E,2.668,116.73,021213,,,A*6E
$GPVTG,116.73,T,,M,2.668,N,4.941,K,A*3D
$GPGGA,105749.00,3946.88674,N,03249.26660,E,1,07,1.69,1031.3,M,35.7,M,,*6F
$GPGSA,A,3,27,03,14,06,11,32,19,,,,,,3.64,1.69,3.23*03
$GPGSV,4,1,14,01,14,297,31,03,54,217,38,06,45,186,40,11,33,304,40*71
$GPGSV,4,2,14,14,56,117,42,16,01,207,,18,17,059,,19,64,276,38*7F
$GPGSV,4,3,14,21,04,108,24,22,,,42,24,03,044,,27,55,193,42*48
$GPGSV,4,4,14,28,02,330,,32,27,245,33*73
$GPGLL,3946.88674,N,03249.26660,E,105749.00,A,A*62
$GPRMC,105750.00,A,3946.88644,N,03249.26744,E,2.510,117.14,021213,,,A*6E
$GPVTG,117.14,T,,M,2.510,N,4.649,K,A*36
$GPGGA,105750.00,3946.88644,N,03249.26744,E,1,07,1.69,1031.4,M,35.7,M,,*64

$GPGSA,A,3,27,03,14,06,11,32,19,,,,,,3.65,1.69,3.23*02
$GPGSV,4,1,14,01,14,297,25,03,54,217,32,06,45,186,31,11,33,304,33*7C
$GPGSV,4,2,14,14,56,117,39,16,01,207,,18,17,059,,19,64,276,42*7E
$GPGSV,4,3,14,21,04,108,22,22,,,32,24,03,044,,27,55,193,42*49
$GPGSV,4,4,14,28,02,330,,32,27,245,38*78
$GPGLL,3946.88644,N,03249.26744,E,105750.00,A,A*6E
$GPRMC,105751.00,A,3946.88628,N,03249.26821,E,2.287,114.94,021213,,,A*6B
$GPVTG,114.94,T,,M,2.287,N,4.236,K,A*38
$GPGGA,105751.00,3946.88628,N,03249.26821,E,1,08,1.69,1031.3,M,35.7,M,,*6B
$GPGSA,A,3,27,03,14,06,18,11,32,19,,,,,3.65,1.69,3.23*0B
$GPGSV,4,1,14,01,14,297,25,03,54,217,28,06,45,186,35,11,33,304,36*76
$GPGSV,4,2,14,14,56,117,39,16,01,207,,18,17,059,27,19,64,276,45*7C
$GPGSV,4,3,14,21,04,108,,22,,,36,24,03,044,,27,55,193,42*4D
$GPGSV,4,4,14,28,02,330,,32,27,245,34*74
$GPGLL,3946.88628,N,03249.26821,E,105751.00,A,A*69
$GPRMC,105752.00,A,3946.88597,N,03249.26883,E,1.968,,021213,,,A*79
$GPVTG,,T,,M,1.968,N,3.645,K,A*21
$GPGGA,105752.00,3946.88597,N,03249.26883,E,1,08,1.69,1031.1,M,35.7,M,,*65
$GPGSA,A,3,27,03,14,06,18,11,32,19,,,,,3.65,1.69,3.23*0B
$GPGSV,4,1,14,01,14,297,25,03,54,217,33,06,45,186,31,11,33,304,35*7B
$GPGSV,4,2,14,14,56,117,42,16,01,207,,18,17,059,26,19,64,276,42*76
$GPGSV,4,3,14,21,04,108,,22,,,40,24,03,044,,27,55,193,37*4E
$GPGSV,4,4,14,28,02,330,,32,27,245,29*78
$GPGLL,3946.88597,N,03249.26883,E,105752.00,A,A*65
$GPRMC,105753.00,A,3946.88581,N,03249.26934,E,1.668,,021213,,,A*7D
$GPVTG,,T,,M,1.668,N,3.089,K,A*28
$GPGGA,105753.00,3946.88581,N,03249.26934,E,1,08,1.47,1031.1,M,35.7,M,,*62
$GPGSA,A,3,27,03,14,06,18,11,32,19,,,,,3.32,1.47,2.98*04
$GPGSV,4,1,14,01,14,297,26,03,54,217,31,06,45,186,40,11,33,304,44*7A
$GPGSV,4,2,14,14,56,117,43,16,01,207,,18,17,059,24,19,64,276,40*77
$GPGSV,4,3,14,21,04,108,21,22,,,40,24,03,044,,27,55,193,30*4A
$GPGSV,4,4,14,28,02,330,21,32,27,245,30*73
$GPGLL,3946.88581,N,03249.26934,E,105753.00,A,A*6E
$GPRMC,105754.00,A,3946.88577,N,03249.26984,E,1.540,,021213,,,A*71
$GPVTG,,T,,M,1.540,N,2.852,K,A*2E
$GPGGA,105754.00,3946.88577,N,03249.26984,E,1,08,1.47,1031.5,M,35.7,M,,*63
$GPGSA,A,3,27,03,14,06,18,11,32,19,,,,,3.32,1.47,2.98*04
$GPGSV,4,1,14,01,14,297,32,03,54,217,34,06,45,186,38,11,33,304,41*70
$GPGSV,4,2,14,14,56,117,47,16,01,207,,18,17,059,22,19,64,276,42*77
$GPGSV,4,3,14,21,04,108,,22,,,43,24,03,044,,27,55,193,34*4E
$GPGSV,4,4,14,28,02,330,17,32,27,245,21*76
$GPGLL,3946.88577,N,03249.26984,E,105754.00,A,A*6B
$GPRMC,105755.00,A,3946.88576,N,03249.27057,E,1.849,109.79,021213,,,A*6B
$GPVTG,109.79,T,,M,1.849,N,3.425,K,A*3F
$GPGGA,105755.00,3946.88576,N,03249.27057,E,1,06,1.82,1031.4,M,35.7,M,,*63
$GPGSA,A,3,27,03,14,06,11,19,,,,,,,4.52,1.82,4.14*06
$GPGSV,4,1,14,01,14,297,34,03,54,217,37,06,45,186,27,11,33,304,47*7D
$GPGSV,4,2,14,14,56,117,46,16,01,207,,18,17,059,,19,64,276,45*71
$GPGSV,4,3,14,21,04,108,22,22,,,42,24,03,044,,27,55,193,34*4F
$GPGSV,4,4,14,28,02,330,13,32,27,245,*71
$GPGLL,3946.88576,N,03249.27057,E,105755.00,A,A*6D
$GPRMC,105756.00,A,3946.88580,N,03249.27132,E,1.855,104.94,021213,,,A*60
$GPVTG,104.94,T,,M,1.855,N,3.435,K,A*3D
$GPGGA,105756.00,3946.88580,N,03249.27132,E,1,07,1.69,1031.3,M,35.7,M,,*68
$GPGSA,A,3,27,03,14,06,11,32,19,,,,,,3.65,1.69,3.24*05
$GPGSV,4,1,14,01,14,297,37,03,54,217,30,06,45,186,27,11,33,304,47*79
$GPGSV,4,2,14,14,56,117,47,16,01,207,,18,17,059,,19,64,276,43*76
$GPGSV,4,3,14,21,04,108,23,22,,,31,24,03,044,,27,55,193,33*4D
$GPGSV,4,4,14,28,02,330,12,32,27,245,33*70
$GPGLL,3946.88580,N,03249.27132,E,105756.00,A,A*65
$GPRMC,105757.00,A,3946.88568,N,03249.27216,E,2.404,108.83,021213,,,A*63
$GPVTG,108.83,T,,M,2.404,N,4.452,K,A*3A
$GPGGA,105757.00,3946.88568,N,03249.27216,E,1,06,1.80,1031.3,M,35.7,M,,*6C
$GPGSA,A,3,27,14,06,11,32,19,,,,,,,3.93,1.80,3.49*03
$GPGSV,4,1,14,01,14,297,38,03,54,217,28,06,45,186,32,11,33,304,47*7B
$GPGSV,4,2,14,14,56,117,46,16,01,207,,18,17,059,,19,64,276,43*77
$GPGSV,4,3,14,21,04,108,,22,,,35,24,03,044,,27,55,193,30*4B
$GPGSV,4,4,14,28,02,330,12,32,27,245,29*7B
$GPGLL,3946.88568,N,03249.27216,E,105757.00,A,A*67
$GPRMC,105758.00,A,3946.88582,N,03249.27336,E,3.261,98.03,021213,,,A*5F
$GPVTG,98.03,T,,M,3.261,N,6.040,K,A*0B
$GPGGA,105758.00,3946.88582,N,03249.27336,E,1,09,1.42,1031.4,M,35.7,M,,*62
$GPGSA,A,3,27,03,14,06,18,22,11,32,19,,,,3.75,1.42,3.47*01
$GPGSV,4,1,14,01,14,297,29,03,54,217,31,06,45,186,32,11,33,304,35*76
$GPGSV,4,2,14,14,56,117,39,16,01,207,22,18,17,059,35,19,64,276,42*78
$GPGSV,4,3,14,21,04,108,,22,51,051,40,24,03,044,,27,55,193,40*7E
$GPGSV,4,4,14,28,02,330,,32,27,245,21*70
$GPGLL,3946.88582,N,03249.27336,E,105758.00,A,A*6F
$GPRMC,105759.00,A,3946.88592,N,03249.27456,E,3.125,91.09,021213,,,A*5E
$GPVTG,91.09,T,,M,3.125,N,5.787,K,A*04
$GPGGA,105759.00,3946.88592,N,03249.27456,E,1,09,1.42,1031.1,M,35.7,M,,*66
$GPGSA,A,3,27,03,14,06,18,22,11,32,19,,,,3.75,1.42,3.47*01
$GPGSV,4,1,14,01,14,297,,03,54,217,32,06,45,186,36,11,33,304,37*78
$GPGSV,4,2,14,14,56,117,39,16,01,207,,18,17,059,32,19,64,276,38*72
$GPGSV,4,3,14,21,04,108,,22,51,051,41,24,03,044,,27,55,193,33*7B
$GPGSV,4,4,14,28,02,330,,32,27,245,20*71
$GPGLL,3946.88592,N,03249.27456,E,105759.00,A,A*6E
$GPRMC,105800.00,A,3946.88603,N,03249.27576,E,3.127,88.15,021213,,,A*52
$GPVTG,88.15,T,,M,3.127,N,5.791,K,A*04
$GPGGA,105800.00,3946.88603,N,03249.27576,E,1,09,1.49,1031.1,M,35.7,M,,*66
$GPGSA,A,3,27,03,14,06,18,22,11,32,19,,,,4.51,1.49,4.26*0B
$GPGSV,4,1,14,01,14,297,,03,54,217,31,06,45,186,32,11,33,304,27*7E
$GPGSV,4,2,14,14,56,117,41,16,01,207,23,18,17,059,39,19,64,276,40*78
$GPGSV,4,3,14,21,04,108,20,22,51,051,44,24,03,044,,27,55,193,33*7C
$GPGSV,4,4,14,28,02,330,,32,27,245,23*72
$GPGLL,3946.88603,N,03249.27576,E,105800.00,A,A*65

$GPRMC,105801.00,A,3946.88572,N,03249.27647,E,2.032,,021213,,,A*79
$GPVTG,,T,,M,2.032,N,3.764,K,A*26
$GPGGA,105801.00,3946.88572,N,03249.27647,E,1,09,1.49,1030.4,M,35.7,M,,*67
$GPGSA,A,3,27,03,14,06,18,22,11,32,19,,,,4.51,1.49,4.26*0B
$GPGSV,4,1,14,01,14,297,,03,54,217,25,06,45,186,28,11,33,304,35*73
$GPGSV,4,2,14,14,56,117,42,16,01,207,21,18,17,059,36,19,64,276,40*76
$GPGSV,4,3,14,21,04,108,18,22,51,051,43,24,03,044,,27,55,193,40*74
$GPGSV,4,4,14,28,02,330,,32,27,245,30*70
$GPGLL,3946.88572,N,03249.27647,E,105801.00,A,A*60
$GPRMC,105802.00,A,3946.88527,N,03249.27731,E,2.463,,021213,,,A*7A
$GPVTG,,T,,M,2.463,N,4.562,K,A*25
$GPGGA,105802.00,3946.88527,N,03249.27731,E,1,08,1.49,1030.1,M,35.7,M,,*60
$GPGSA,A,3,27,03,14,06,22,11,32,19,,,,,4.51,1.49,4.26*02
$GPGSV,4,1,14,01,14,297,,03,54,217,36,06,45,186,38,11,33,304,37*72

$GPGSV,4,2,14,14,56,117,43,16,01,207,15,18,17,059,,19,64,276,38*7A
$GPGSV,4,3,14,21,04,108,14,22,51,051,44,24,03,044,,27,55,193,40*7F
$GPGSV,4,4,14,28,02,330,,32,27,245,30*70
$GPGLL,3946.88527,N,03249.27731,E,105802.00,A,A*63
$GPRMC,105803.00,A,3946.88440,N,03249.27801,E,2.542,99.60,021213,,,A*5D
$GPVTG,99.60,T,,M,2.542,N,4.708,K,A*01
$GPGGA,105803.00,3946.88440,N,03249.27801,E,1,08,1.34,1029.7,M,35.7,M,,*69
$GPGSA,A,3,27,03,14,06,22,11,32,19,,,,,4.35,1.34,4.14*0B
$GPGSV,4,1,14,01,14,297,,03,54,217,39,06,45,186,40,11,33,304,35*70
$GPGSV,4,2,14,14,56,117,38,16,01,207,10,18,17,059,,19,64,276,39*72
$GPGSV,4,3,14,21,04,108,10,22,51,051,43,24,03,044,,27,55,193,44*78
$GPGSV,4,4,14,28,02,330,,32,27,245,31*71
$GPGLL,3946.88440,N,03249.27801,E,105803.00,A,A*6E
$GPRMC,105804.00,A,3946.88366,N,03249.27873,E,2.850,113.55,021213,,,A*67
$GPVTG,113.55,T,,M,2.850,N,5.278,K,A*39
$GPGGA,105804.00,3946.88366,N,03249.27873,E,1,08,1.34,1029.5,M,35.7,M,,*6A
$GPGSA,A,3,27,03,14,06,22,11,32,19,,,,,4.35,1.34,4.14*0B
$GPGSV,4,1,14,01,14,297,,03,54,217,38,06,45,186,44,11,33,304,37*77
$GPGSV,4,2,14,14,56,117,44,16,01,207,09,18,17,059,,19,64,276,37*7F
$GPGSV,4,3,14,21,04,108,08,22,51,051,45,24,03,044,,27,55,193,46*75
$GPGSV,4,4,14,28,02,330,,32,27,245,23*72
$GPGLL,3946.88366,N,03249.27873,E,105804.00,A,A*6F
$GPRMC,105805.00,A,3946.88300,N,03249.27954,E,3.129,121.49,021213,,,A*68
$GPVTG,121.49,T,,M,3.129,N,5.794,K,A*34
$GPGGA,105805.00,3946.88300,N,03249.27954,E,1,09,1.29,1029.3,M,35.7,M,,*64
$GPGSA,A,3,27,03,14,06,18,22,11,32,19,,,,3.36,1.29,3.10*09
$GPGSV,4,1,14,01,14,297,,03,54,217,42,06,45,186,46,11,33,304,38*77
$GPGSV,4,2,14,14,56,117,41,16,01,207,04,18,17,059,37,19,64,276,39*7D
$GPGSV,4,3,14,21,04,108,06,22,51,051,45,24,03,044,,27,55,193,47*7A
$GPGSV,4,4,14,28,02,330,,32,27,245,31*71
$GPGLL,3946.88300,N,03249.27954,E,105805.00,A,A*6A
$GPRMC,105806.00,A,3946.88229,N,03249.28030,E,2.752,121.00,021213,,,A*63
$GPVTG,121.00,T,,M,2.752,N,5.096,K,A*37
$GPGGA,105806.00,3946.88229,N,03249.28030,E,1,09,1.08,1028.4,M,35.7,M,,*6C
$GPGSA,A,3,27,03,14,06,18,22,11,32,19,,,,2.19,1.08,1.90*0C
$GPGSV,4,1,14,01,14,297,35,03,54,217,43,06,45,186,48,11,33,304,41*70
$GPGSV,4,2,14,14,56,117,43,16,01,207,04,18,17,059,31,19,64,276,40*77
$GPGSV,4,3,14,21,04,108,06,22,51,051,46,24,03,044,,27,55,193,50*7F
$GPGSV,4,4,14,28,02,330,,32,27,245,34*74
$GPGLL,3946.88229,N,03249.28030,E,105806.00,A,A*67
$GPRMC,105807.00,A,3946.88135,N,03249.28125,E,2.997,115.60,021213,,,A*6F
$GPVTG,115.60,T,,M,2.997,N,5.551,K,A*3F

$GPGGA,105807.00,3946.88135,N,03249.28125,E,1,08,1.41,1027.7,M,35.7,M,,*66
$GPGSA,A,3,27,03,14,06,18,22,32,19,,,,,2.37,1.41,1.90*0D
$GPGSV,4,1,14,01,14,297,35,03,54,217,50,06,45,186,45,11,33,304,*7A
$GPGSV,4,2,14,14,56,117,43,16,01,207,04,18,17,059,35,19,64,276,36*72
$GPGSV,4,3,14,21,04,108,06,22,51,051,47,24,03,044,,27,55,193,49*76
$GPGSV,4,4,14,28,02,330,,32,27,245,34*74
$GPGLL,3946.88135,N,03249.28125,E,105807.00,A,A*6D
$GPRMC,105808.00,A,3946.88123,N,03249.28177,E,1.504,105.82,021213,,,A*68
$GPVTG,105.82,T,,M,1.504,N,2.785,K,A*3B
$GPGGA,105808.00,3946.88123,N,03249.28177,E,1,09,1.08,1028.0,M,35.7,M,,*6D
$GPGSA,A,3,27,03,14,06,18,22,11,32,19,,,,2.19,1.08,1.90*0C
$GPGSV,4,1,15,01,14,297,27,03,54,217,50,06,45,186,45,11,33,304,38*73
$GPGSV,4,2,15,14,56,117,41,16,01,207,04,18,17,059,33,19,64,276,40*76
$GPGSV,4,3,15,21,04,108,06,22,51,051,45,24,03,044,,27,55,193,47*7B
$GPGSV,4,4,15,28,02,330,,32,27,245,30,39,43,192,41*43
$GPGLL,3946.88123,N,03249.28177,E,105808.00,A,A*62
$GPRMC,105809.00,A,3946.88099,N,03249.28238,E,1.560,106.48,021213,,,A*66
$GPVTG,106.48,T,,M,1.560,N,2.888,K,A*3E
$GPGGA,105809.00,3946.88099,N,03249.28238,E,1,09,1.08,1027.6,M,35.7,M,,*6D
$GPGSA,A,3,27,03,14,06,18,22,11,32,19,,,,2.19,1.08,1.90*0C
$GPGSV,4,1,15,01,14,298,31,03,54,217,48,06,45,186,46,11,33,304,40*7E
$GPGSV,4,2,15,14,56,117,45,16,01,207,04,18,17,059,38,19,64,276,29*76
$GPGSV,4,3,15,21,04,108,06,22,51,051,47,24,03,044,,27,55,193,49*77
$GPGSV,4,4,15,28,02,330,,32,27,245,24,39,43,192,43*44
$GPGLL,3946.88099,N,03249.28238,E,105809.00,A,A*6B
$GPRMC,105810.00,A,3946.88062,N,03249.28283,E,1.273,105.50,021213,,,A*65
$GPVTG,105.50,T,,M,1.273,N,2.358,K,A*37
$GPGGA,105810.00,3946.88062,N,03249.28283,E,1,09,1.41,1027.9,M,35.7,M,,*63
$GPGSA,A,3,27,03,14,06,18,22,11,32,19,,,,2.37,1.41,1.90*0D
$GPGSV,4,1,15,01,14,298,35,03,54,217,49,06,45,186,46,11,33,304,37*7B
$GPGSV,4,2,15,14,56,117,43,16,01,207,04,18,17,059,33,19,64,276,32*71
$GPGSV,4,3,15,21,04,108,,22,51,051,44,24,03,044,,27,55,193,48*73
$GPGSV,4,4,15,28,02,330,,32,27,245,23,39,43,192,41*41
$GPGLL,3946.88062,N,03249.28283,E,105810.00,A,A*67
$GPRMC,105811.00,A,3946.88002,N,03249.28327,E,1.484,109.95,021213,,,A*66
$GPVTG,109.95,T,,M,1.484,N,2.748,K,A*39
$GPGGA,105811.00,3946.88002,N,03249.28327,E,1,09,1.41,1027.7,M,35.7,M,,*65
$GPGSA,A,3,27,03,14,06,18,22,11,32,19,,,,2.37,1.41,1.90*0D
$GPGSV,4,1,15,01,14,298,30,03,53,216,48,06,45,186,48,11,33,304,28*79
$GPGSV,4,2,15,14,56,117,44,16,01,207,07,18,17,059,34,19,64,276,32*72
$GPGSV,4,3,15,21,04,108,,22,51,051,46,24,03,044,,27,55,193,49*70
$GPGSV,4,4,15,28,02,330,,32,27,245,24,39,43,192,42*45
$GPGLL,3946.88002,N,03249.28327,E,105811.00,A,A*6F
$GPRMC,105812.00,A,3946.87954,N,03249.28395,E,2.215,103.49,021213,,,A*6F
$GPVTG,103.49,T,,M,2.215,N,4.101,K,A*32
$GPGGA,105812.00,3946.87954,N,03249.28395,E,1,08,1.41,1027.8,M,35.7,M,,*64
$GPGSA,A,3,27,03,14,06,18,22,32,19,,,,,2.37,1.41,1.90*0D
$GPGSV,4,1,15,01,14,298,,03,53,216,50,06,45,186,47,11,33,304,*76
$GPGSV,4,2,15,14,56,117,46,16,01,207,06,18,17,059,33,19,64,276,35*71
$GPGSV,4,3,15,21,04,108,19,22,51,051,43,24,03,044,,27,55,193,49*7D
$GPGSV,4,4,15,28,02,330,,32,27,245,24,39,43,192,42*45
$GPGLL,3946.87954,N,03249.28395,E,105812.00,A,A*60
$GPRMC,105813.00,A,3946.87910,N,03249.28472,E,2.408,103.19,021213,,,A*6F
$GPVTG,103.19,T,,M,2.408,N,4.459,K,A*35
$GPGGA,105813.00,3946.87910,N,03249.28472,E,1,08,1.41,1027.7,M,35.7,M,,*64
$GPGSA,A,3,27,03,14,06,18,22,32,19,,,,,2.37,1.41,1.90*0D
$GPGSV,4,1,15,01,14,298,,03,53,216,49,06,45,186,45,11,33,304,*7C
$GPGSV,4,2,15,14,56,117,43,16,01,207,,18,17,059,36,19,64,276,35*77
$GPGSV,4,3,15,21,04,108,18,22,51,051,46,24,03,044,,27,55,193,47*77
$GPGSV,4,4,15,28,02,330,,32,27,245,26,39,43,192,42*47
$GPGLL,3946.87910,N,03249.28472,E,105813.00,A,A*6F
$GPRMC,105814.00,A,3946.87867,N,03249.28559,E,2.695,107.57,021213,,,A*69
$GPVTG,107.57,T,,M,2.695,N,4.992,K,A*37
$GPGGA,105814.00,3946.87867,N,03249.28559,E,1,08,1.41,1028.1,M,35.7,M,,*63
$GPGSA,A,3,27,03,14,06,18,22,32,19,,,,,2.37,1.41,1.90*0D
$GPGSV,4,1,15,01,14,298,,03,53,216,49,06,45,186,44,11,33,304,*7D
$GPGSV,4,2,15,14,56,117,44,16,01,207,,18,17,059,34,19,64,276,35*72
$GPGSV,4,3,15,21,04,108,17,22,51,051,44,24,03,044,,27,55,193,47*7A
$GPGSV,4,4,15,28,02,330,,32,27,245,28,39,43,192,41*4A
$GPGLL,3946.87867,N,03249.28559,E,105814.00,A,A*61
$GPRMC,105815.00,A,3946.87825,N,03249.28646,E,2.944,112.47,021213,,,A*65
$GPVTG,112.47,T,,M,2.944,N,5.452,K,A*31
$GPGGA,105815.00,3946.87825,N,03249.28646,E,1,09,1.08,1028.7,M,35.7,M,,*63
$GPGSA,A,3,27,03,14,06,18,22,11,32,19,,,,2.19,1.08,1.90*0C
$GPGSV,4,1,15,01,14,298,,03,53,216,52,06,45,186,46,11,33,304,44*75
$GPGSV,4,2,15,14,56,117,46,16,01,207,,18,17,059,41,19,64,276,38*7F
$GPGSV,4,3,15,21,04,108,,22,51,051,49,24,03,044,,27,55,193,50*77
$GPGSV,4,4,15,28,02,330,,32,27,245,32,39,43,192,43*43
$GPGLL,3946.87825,N,03249.28646,E,105815.00,A,A*6B
$GPRMC,105816.00,A,3946.87799,N,03249.28712,E,1.891,111.65,021213,,,A*67
$GPVTG,111.65,T,,M,1.891,N,3.503,K,A*3B
$GPGGA,105816.00,3946.87799,N,03249.28712,E,1,09,1.08,1029.2,M,35.7,M,,*6C
$GPGSA,A,3,27,03,14,06,18,22,11,32,19,,,,2.19,1.08,1.90*0C
$GPGSV,4,1,15,01,14,298,,03,53,216,49,06,45,186,47,11,33,304,41*7B
$GPGSV,4,2,15,14,56,117,46,16,01,207,,18,17,059,39,19,64,276,27*7E
$GPGSV,4,3,15,21,04,108,,22,50,051,45,24,03,044,28,27,55,193,49*78
$GPGSV,4,4,15,28,02,330,,32,27,245,32,39,43,192,41*41
$GPGLL,3946.87799,N,03249.28712,E,105816.00,A,A*60
$GPRMC,105817.00,A,3946.87778,N,03249.28756,E,1.535,112.87,021213,,,A*65
$GPVTG,112.87,T,,M,1.535,N,2.843,K,A*3F
$GPGGA,105817.00,3946.87778,N,03249.28756,E,1,09,1.08,1030.1,M,35.7,M,,*69
$GPGSA,A,3,27,03,14,06,18,22,11,32,19,,,,2.19,1.08,1.90*0C
$GPGSV,4,1,15,01,14,298,,03,53,216,50,06,45,186,46,11,33,304,41*72
$GPGSV,4,2,15,14,56,117,46,16,01,207,,18,17,059,41,19,64,276,32*75
$GPGSV,4,3,15,21,04,108,,22,50,051,45,24,03,044,28,27,55,193,49*78
$GPGSV,4,4,15,28,02,330,,32,27,245,39,39,43,192,41*4A
$GPGLL,3946.87778,N,03249.28756,E,105817.00,A,A*6E
$GPRMC,105818.00,A,3946.87753,N,03249.28796,E,1.470,115.23,021213,,,A*66
$GPVTG,115.23,T,,M,1.470,N,2.722,K,A*3E
$GPGGA,105818.00,3946.87753,N,03249.28796,E,1,09,1.20,1030.9,M,35.7,M,,*61
$GPGSA,A,3,27,03,14,06,18,22,11,32,19,,,,2.68,1.20,2.39*00
$GPGSV,4,1,15,01,14,298,,03,53,216,49,06,45,186,45,11,33,304,30*7F
$GPGSV,4,2,15,14,56,117,47,16,01,207,,18,17,059,43,19,64,276,37*73
$GPGSV,4,3,15,21,04,108,,22,50,051,47,24,03,044,,27,55,193,49*70

$GPGSV,4,4,15,28,02,330,,32,27,245,40,39,43,192,42*47
$GPGLL,3946.87753,N,03249.28796,E,105818.00,A,A*64
$GPRMC,105819.00,A,3946.87721,N,03249.28838,E,1.364,115.45,021213,,,A*6B
$GPVTG,115.45,T,,M,1.364,N,2.526,K,A*3A
$GPGGA,105819.00,3946.87721,N,03249.28838,E,1,09,1.20,1030.8,M,35.7,M,,*6F
$GPGSA,A,3,27,03,14,06,18,22,11,32,19,,,,2.68,1.20,2.39*00
$GPGSV,4,1,15,01,14,298,,03,53,216,49,06,45,186,45,11,34,304,32*7A
$GPGSV,4,2,15,14,56,117,45,16,01,207,,18,17,059,45,19,64,276,29*78
$GPGSV,4,3,15,21,04,108,,22,50,051,47,24,03,044,,27,55,193,48*71
$GPGSV,4,4,15,28,02,330,,32,27,245,42,39,43,192,41*46
$GPGLL,3946.87721,N,03249.28838,E,105819.00,A,A*6B
$GPRMC,105820.00,A,3946.87681,N,03249.28899,E,2.417,117.32,021213,,,A*63
$GPVTG,117.32,T,,M,2.417,N,4.476,K,A*3A
$GPGGA,105820.00,3946.87681,N,03249.28899,E,1,08,1.41,1031.4,M,35.7,M,,*6E
$GPGSA,A,3,27,03,14,06,18,22,32,19,,,,,2.37,1.41,1.90*0D
$GPGSV,4,1,16,01,14,298,,03,53,216,49,06,45,186,45,11,34,304,*78
$GPGSV,4,2,16,14,56,117,46,16,01,207,,18,17,059,43,19,64,276,32*74
$GPGSV,4,3,16,21,04,108,,22,50,051,46,24,03,044,,27,55,193,46*7D
$GPGSV,4,4,16,28,02,330,,30,,,29,32,27,245,45,39,43,192,40*4B
$GPGLL,3946.87681,N,03249.28899,E,105820.00,A,A*61
$GPRMC,105821.00,A,3946.87644,N,03249.28979,E,2.743,111.19,021213,,,A*69
$GPVTG,111.19,T,,M,2.743,N,5.079,K,A*3D
$GPGGA,105821.00,3946.87644,N,03249.28979,E,1,08,1.18,1031.4,M,35.7,M,,*65
$GPGSA,A,3,27,03,14,06,18,22,11,32,,,,,2.54,1.18,2.24*00
$GPGSV,4,1,16,01,14,298,,03,53,216,48,06,45,186,46,11,34,304,36*7F
$GPGSV,4,2,16,14,56,117,43,16,01,207,,18,17,059,41,19,64,276,37*76
$GPGSV,4,3,16,21,04,108,13,22,50,051,45,24,03,044,,27,55,193,49*73
$GPGSV,4,4,16,28,02,330,,30,,,29,32,27,245,48,39,43,192,41*47
$GPGLL,3946.87644,N,03249.28979,E,105821.00,A,A*66
$GPRMC,105822.00,A,3946.87610,N,03249.29059,E,2.808,109.47,021213,,,A*63
$GPVTG,109.47,T,,M,2.808,N,5.201,K,A*32
$GPGGA,105822.00,3946.87610,N,03249.29059,E,1,09,1.08,1031.2,M,35.7,M,,*6B
$GPGSA,A,3,27,03,14,06,18,22,11,32,19,,,,2.19,1.08,1.90*0C
$GPGSV,4,1,16,01,14,298,,03,53,216,49,06,45,186,41,11,34,304,42*7A
$GPGSV,4,2,16,14,56,116,45,16,01,207,,18,17,059,42,19,64,276,44*76
$GPGSV,4,3,16,21,04,108,10,22,50,051,48,24,03,044,,27,55,193,47*73
$GPGSV,4,4,16,28,02,330,,30,,,30,32,27,245,45,39,43,192,39*4D
$GPGLL,3946.87610,N,03249.29059,E,105822.00,A,A*6E
$GPRMC,105823.00,A,3946.87584,N,03249.29137,E,2.661,107.92,021213,,,A*62
$GPVTG,107.92,T,,M,2.661,N,4.929,K,A*35
$GPGGA,105823.00,3946.87584,N,03249.29137,E,1,09,1.08,1031.0,M,35.7,M,,*6F
$GPGSA,A,3,27,03,14,06,18,22,11,32,19,,,,2.19,1.08,1.90*0C
$GPGSV,4,1,15,01,14,298,,03,53,216,48,06,45,186,42,11,34,304,40*79
$GPGSV,4,2,15,14,56,116,45,16,01,207,,18,17,059,44,19,64,276,45*72
$GPGSV,4,3,15,21,04,108,09,22,50,051,45,24,03,044,28,27,55,193,48*70
$GPGSV,4,4,15,28,02,330,,32,27,245,46,39,43,192,39*4D
$GPGLL,3946.87584,N,03249.29137,E,105823.00,A,A*68
$GPRMC,105824.00,A,3946.87548,N,03249.29219,E,2.799,110.06,021213,,,A*67
$GPVTG,110.06,T,,M,2.799,N,5.183,K,A*31
$GPGGA,105824.00,3946.87548,N,03249.29219,E,1,09,1.08,1030.3,M,35.7,M,,*65
$GPGSA,A,3,27,03,14,06,18,22,11,32,19,,,,2.19,1.08,1.90*0C
$GPGSV,4,1,16,01,14,298,,03,53,216,47,06,45,186,43,11,34,304,47*73
$GPGSV,4,2,16,14,56,116,45,16,00,206,,18,17,059,34,19,64,276,42*71
$GPGSV,4,3,16,21,04,108,08,22,50,051,40,24,03,044,29,27,55,193,48*76
$GPGSV,4,4,16,28,02,330,,32,27,245,48,33,23,240,42,39,43,192,41*7E
$GPGLL,3946.87548,N,03249.29219,E,105824.00,A,A*60
$GPRMC,105825.00,A,3946.87528,N,03249.29300,E,2.508,106.82,021213,,,A*68
$GPVTG,106.82,T,,M,2.508,N,4.645,K,A*3C
$GPGGA,105825.00,3946.87528,N,03249.29300,E,1,09,1.08,1030.4,M,35.7,M,,*6C
$GPGSA,A,3,27,03,14,06,18,22,11,32,19,,,,2.19,1.08,1.90*0C
$GPGSV,4,1,16,01,14,298,,03,53,216,46,06,45,186,40,11,34,304,35*74
$GPGSV,4,2,16,14,56,116,45,16,00,206,,18,17,059,38,19,64,276,46*79
$GPGSV,4,3,16,21,04,108,08,22,50,051,45,24,03,044,33,27,55,193,47*77
$GPGSV,4,4,16,28,02,330,,32,27,245,46,33,23,240,40,39,43,192,39*7D
$GPGLL,3946.87528,N,03249.29300,E,105825.00,A,A*6E
$GPRMC,105826.00,A,3946.87502,N,03249.29354,E,1.861,117.95,021213,,,A*65
$GPVTG,117.95,T,,M,1.861,N,3.447,K,A*3C
$GPGGA,105826.00,3946.87502,N,03249.29354,E,1,09,1.08,1030.7,M,35.7,M,,*65
$GPGSA,A,3,27,03,14,06,18,22,11,32,19,,,,2.19,1.08,1.90*0C
$GPGSV,4,1,16,01,14,298,,03,53,216,48,06,45,186,44,11,34,304,38*73
$GPGSV,4,2,16,14,56,116,42,16,00,206,,18,17,059,36,19,64,276,43*75
$GPGSV,4,3,16,21,04,108,08,22,50,051,45,24,03,044,33,27,55,193,42*72
$GPGSV,4,4,16,28,02,330,,32,27,245,47,33,23,240,43,39,43,192,41*70
$GPGLL,3946.87502,N,03249.29354,E,105826.00,A,A*64
$GPRMC,105827.00,A,3946.87474,N,03249.29398,E,1.618,123.83,021213,,,A*64
$GPVTG,123.83,T,,M,1.618,N,2.997,K,A*3D
$GPGGA,105827.00,3946.87474,N,03249.29398,E,1,09,1.08,1031.1,M,35.7,M,,*63
$GPGSA,A,3,27,03,14,06,18,22,11,32,19,,,,2.19,1.08,1.90*0C
$GPGSV,4,1,16,01,14,298,,03,53,216,46,06,45,186,37,11,34,304,38*79
$GPGSV,4,2,16,14,56,116,43,16,00,206,,18,17,059,40,19,64,275,47*72
$GPGSV,4,3,16,21,04,108,08,22,50,051,42,24,03,044,28,27,55,193,43*7E
$GPGSV,4,4,16,28,02,330,,32,27,245,43,33,23,240,40,39,43,192,33*72
$GPGLL,3946.87474,N,03249.29398,E,105827.00,A,A*65
$GPRMC,105828.00,A,3946.87462,N,03249.29454,E,1.910,111.61,021213,,,A*61
$GPVTG,111.61,T,,M,1.910,N,3.537,K,A*30
$GPGGA,105828.00,3946.87462,N,03249.29454,E,1,09,1.41,1031.7,M,35.7,M,,*67
$GPGSA,A,3,27,03,14,06,18,22,11,32,19,,,,2.37,1.41,1.90*0D
$GPGSV,4,1,16,01,14,298,,03,53,216,48,06,45,186,41,11,34,304,35*7B
$GPGSV,4,2,16,14,56,116,41,16,00,206,,18,17,059,41,19,64,275,47*71
$GPGSV,4,3,16,21,04,108,,22,50,051,44,24,03,044,34,27,55,193,45*7B
$GPGSV,4,4,16,28,02,330,,32,27,245,48,33,23,240,43,39,43,192,42*7C
$GPGLL,3946.87462,N,03249.29454,E,105828.00,A,A*6A
$GPRMC,105829.00,A,3946.87449,N,03249.29539,E,2.650,106.06,021213,,,A*6C
$GPVTG,106.06,T,,M,2.650,N,4.908,K,A*38
$GPGGA,105829.00,3946.87449,N,03249.29539,E,1,09,1.08,1031.8,M,35.7,M,,*67
$GPGSA,A,3,27,03,14,06,18,22,11,32,19,,,,2.19,1.08,1.90*0C
$GPGSV,4,1,16,01,14,298,36,03,53,216,50,06,45,186,45,11,34,304,36*70
$GPGSV,4,2,16,14,56,116,43,16,00,206,,18,17,059,38,19,64,275,41*7B
$GPGSV,4,3,16,21,04,108,,22,50,051,47,24,03,044,38,27,55,193,48*79
$GPGSV,4,4,16,28,02,330,,32,27,245,28,33,23,240,31,39,43,192,41*7C
$GPGLL,3946.87449,N,03249.29539,E,105829.00,A,A*68
$GPRMC,105830.00,A,3946.87436,N,03249.29624,E,2.675,103.39,021213,,,A*6D
$GPVTG,103.39,T,,M,2.675,N,4.954,K,A*3F
$GPGGA,105830.00,3946.87436,N,03249.29624,E,1,09,1.08,1032.2,M,35.7,M,,*61
$GPGSA,A,3,27,03,14,06,18,22,11,32,19,,,,2.19,1.08,1.90*0C
$GPGSV,4,1,16,01,14,298,40,03,53,216,50,06,45,186,45,11,34,304,45*75
$GPGSV,4,2,16,14,56,116,43,16,00,206,,18,17,059,37,19,64,275,40*75
$GPGSV,4,3,16,21,04,108,24,22,50,051,44,24,03,044,38,27,55,193,48*7C
$GPGSV,4,4,16,28,02,330,,32,27,245,38,33,23,240,31,39,43,192,41*7D
$GPGLL,3946.87436,N,03249.29624,E,105830.00,A,A*67
$GPRMC,105831.00,A,3946.87407,N,03249.29710,E,2.571,106.17,021213,,,A*66
$GPVTG,106.17,T,,M,2.571,N,4.761,K,A*39
$GPGGA,105831.00,3946.87407,N,03249.29710,E,1,09,1.08,1032.2,M,35.7,M,,*64
$GPGSA,A,3,27,03,14,06,18,22,11,32,19,,,,2.19,1.08,1.90*0C
$GPGSV,4,1,16,01,14,298,36,03,53,216,50,06,45,186,40,11,34,304,46*72
$GPGSV,4,2,16,14,56,116,43,16,00,206,,18,17,059,35,19,64,275,39*79
$GPGSV,4,3,16,21,04,108,22,22,50,051,45,24,03,044,28,27,55,193,50*73
$GPGSV,4,4,16,28,02,330,,32,27,245,35,33,23,240,29,39,43,192,37*78
$GPGLL,3946.87407,N,03249.29710,E,105831.00,A,A*62
$GPRMC,105832.00,A,3946.87361,N,03249.29778,E,2.609,128.42,021213,,,A*6C
$GPVTG,128.42,T,,M,2.609,N,4.832,K,A*30
$GPGGA,105832.00,3946.87361,N,03249.29778,E,1,09,1.08,1032.3,M,35.7,M,,*6F
$GPGSA,A,3,27,03,14,06,18,22,11,32,19,,,,2.19,1.08,1.90*0C
$GPGSV,4,1,16,01,14,298,40,03,53,216,48,06,45,186,46,11,34,304,46*7C
$GPGSV,4,2,16,14,56,116,42,16,00,206,,18,17,059,34,19,64,275,42*75
$GPGSV,4,3,16,21,04,108,,22,50,051,45,24,03,043,33,27,55,193,48*77
$GPGSV,4,4,16,28,02,330,,32,27,245,32,33,23,240,28,39,43,192,42*7C
$GPGLL,3946.87361,N,03249.29778,E,105832.00,A,A*68
$GPRMC,105833.00,A,3946.87308,N,03249.29830,E,2.590,138.91,021213,,,A*6D
$GPVTG,138.91,T,,M,2.590,N,4.796,K,A*3D
$GPGGA,105833.00,3946.87308,N,03249.29830,E,1,09,1.08,1032.5,M,35.7,M,,*64
$GPGSA,A,3,27,03,14,06,18,22,11,32,19,,,,2.19,1.08,1.90*0C
$GPGSV,4,1,16,01,14,298,38,03,53,216,51,06,45,186,45,11,34,304,41*7F
$GPGSV,4,2,16,14,56,116,43,16,00,206,,18,17,059,37,19,64,275,44*71
$GPGSV,4,3,16,21,04,108,,22,50,051,46,24,03,043,28,27,55,193,47*71
$GPGSV,4,4,16,28,02,330,,32,27,245,32,33,23,240,28,39,43,192,40*7E
$GPGLL,3946.87308,N,03249.29830,E,105833.00,A,A*65
$GPRMC,105834.00,A,3946.87243,N,03249.29851,E,2.600,145.50,021213,,,A*6E
$GPVTG,145.50,T,,M,2.600,N,4.815,K,A*34
$GPGGA,105834.00,3946.87243,N,03249.29851,E,1,09,1.08,1032.4,M,35.7,M,,*6B
$GPGSA,A,3,27,03,14,06,18,22,11,32,19,,,,2.19,1.08,1.90*0C
$GPGSV,4,1,16,01,14,298,,03,53,216,48,06,45,186,43,11,34,304,42*79
$GPGSV,4,2,16,14,56,116,45,16,00,206,,18,17,059,37,19,64,275,45*76
$GPGSV,4,3,16,21,04,108,,22,50,051,44,24,03,043,38,27,55,193,46*73
$GPGSV,4,4,16,28,02,330,,32,27,245,46,33,23,240,42,39,43,192,42*73
$GPGLL,3946.87243,N,03249.29851,E,105834.00,A,A*6B
$GPRMC,105835.00,A,3946.87180,N,03249.29852,E,2.265,158.00,021213,,,A*6E
$GPVTG,158.00,T,,M,2.265,N,4.194,K,A*3A
$GPGGA,105835.00,3946.87180,N,03249.29852,E,1,09,1.08,1032.5,M,35.7,M,,*64
$GPGSA,A,3,27,03,14,06,18,22,11,32,19,,,,2.19,1.08,1.90*0C
$GPGSV,4,1,16,01,14,298,26,03,53,216,48,06,45,186,44,11,34,304,42*7A
$GPGSV,4,2,16,14,56,116,44,16,00,206,,18,17,059,38,19,64,275,45*78
$GPGSV,4,3,16,21,04,108,,22,50,051,46,24,03,043,40,27,55,193,45*7D
$GPGSV,4,4,16,28,02,330,,32,27,245,47,33,23,240,40,39,43,192,39*7C
$GPGLL,3946.87180,N,03249.29852,E,105835.00,A,A*65
$GPRMC,105836.00,A,3946.87118,N,03249.29840,E,2.299,177.06,021213,,,A*67
$GPVTG,177.06,T,,M,2.299,N,4.258,K,A*31
$GPGGA,105836.00,3946.87118,N,03249.29840,E,1,09,1.08,1032.5,M,35.7,M,,*65
$GPGSA,A,3,27,03,14,06,18,22,11,32,19,,,,2.19,1.08,1.90*0C
$GPGSV,4,1,16,01,14,298,,03,53,216,48,06,45,186,43,11,34,304,41*7A
$GPGSV,4,2,16,14,56,116,43,16,00,206,,18,17,059,39,19,64,275,43*78
$GPGSV,4,3,16,21,04,108,,22,50,051,43,24,03,043,39,27,55,193,44*77
$GPGSV,4,4,16,28,03,329,,32,27,245,46,33,23,240,40,39,43,192,37*7A
$GPGLL,3946.87118,N,03249.29840,E,105836.00,A,A*64
$GPRMC,105837.00,A,3946.87052,N,03249.29839,E,2.388,175.98,021213,,,A*63
$GPVTG,175.98,T,,M,2.388,N,4.422,K,A*3E
$GPGGA,105837.00,3946.87052,N,03249.29839,E,1,09,1.08,1032.6,M,35.7,M,,*66
$GPGSA,A,3,27,03,14,06,18,22,11,32,19,,,,2.19,1.08,1.90*0C
$GPGSV,4,1,16,01,14,298,30,03,53,216,45,06,45,186,33,11,34,304,32*77
$GPGSV,4,2,16,14,56,116,45,16,00,206,,18,17,059,42,19,64,275,47*76
$GPGSV,4,3,16,21,04,108,,22,50,051,48,24,03,043,33,27,55,193,45*77
$GPGSV,4,4,16,28,03,329,,32,27,245,41,33,23,240,36,39,43,192,34*7F
$GPGLL,3946.87052,N,03249.29839,E,105837.00,A,A*64
$GPRMC,105838.00,A,3946.86978,N,03249.29854,E,2.661,173.20,021213,,,A*60
$GPVTG,173.20,T,,M,2.661,N,4.927,K,A*31
$GPGGA,105838.00,3946.86978,N,03249.29854,E,1,09,1.08,1032.7,M,35.7,M,,*63
$GPGSA,A,3,27,03,14,06,18,22,11,32,19,,,,2.19,1.08,1.90*0C
$GPGSV,4,1,16,01,14,298,,03,53,216,45,06,45,186,38,11,34,304,33*7E
$GPGSV,4,2,16,14,56,116,45,16,00,206,,18,17,059,43,19,64,275,48*78
$GPGSV,4,3,16,21,04,108,,22,50,051,48,24,03,043,29,27,55,193,43*7A
$GPGSV,4,4,16,28,03,329,,32,27,245,41,33,23,240,35,39,43,192,35*7D
$GPGLL,3946.86978,N,03249.29854,E,105838.00,A,A*60
$GPRMC,105839.00,A,3946.86904,N,03249.29862,E,2.595,175.64,021213,,,A*61
$GPVTG,175.64,T,,M,2.595,N,4.806,K,A*3D
$GPGGA,105839.00,3946.86904,N,03249.29862,E,1,09,1.08,1032.8,M,35.7,M,,*63
$GPGSA,A,3,27,03,14,06,18,22,11,32,19,,,,2.19,1.08,1.90*0C
$GPGSV,4,1,16,01,14,298,,03,53,216,47,06,45,186,37,11,34,304,34*74
$GPGSV,4,2,16,14,56,116,42,16,00,206,,18,17,059,40,19,64,275,48*7C
$GPGSV,4,3,16,21,04,108,,22,50,051,46,24,03,043,28,27,55,193,42*74
$GPGSV,4,4,16,28,03,329,,32,27,245,41,33,23,240,36,39,43,192,31*7A
$GPGLL,3946.86904,N,03249.29862,E,105839.00,A,A*6F
$GPRMC,105840.00,A,3946.86844,N,03249.29878,E,2.080,171.12,021213,,,A*65
$GPVTG,171.12,T,,M,2.080,N,3.852,K,A*3F
$GPGGA,105840.00,3946.86844,N,03249.29878,E,1,09,1.08,1033.0,M,35.7,M,,*6A
$GPGSA,A,3,27,03,14,06,18,22,11,32,19,,,,2.19,1.08,1.90*0C
$GPGSV,4,1,16,01,14,298,32,03,53,216,47,06,45,186,38,11,34,304,34*7A
$GPGSV,4,2,16,14,56,116,43,16,00,206,,18,17,059,33,19,64,275,46*77
$GPGSV,4,3,16,21,04,108,17,22,50,051,38,24,03,043,28,27,55,193,44*7D
$GPGSV,4,4,16,28,03,329,,32,27,245,42,33,23,240,29,39,43,192,30*76
$GPGLL,3946.86844,N,03249.29878,E,105840.00,A,A*6F
$GPRMC,105841.00,A,3946.86779,N,03249.29901,E,2.404,167.50,021213,,,A*63
$GPVTG,167.50,T,,M,2.404,N,4.453,K,A*3C
$GPGGA,105841.00,3946.86779,N,03249.29901,E,1,09,1.08,1033.0,M,35.7,M,,*65
$GPGSA,A,3,27,03,14,06,18,22,11,32,19,,,,2.19,1.08,1.90*0C
$GPGSV,4,1,16,01,14,298,32,03,53,216,48,06,45,186,42,11,34,304,33*7F
$GPGSV,4,2,16,14,56,116,47,16,00,206,,18,17,059,40,19,64,275,47*76
$GPGSV,4,3,16,21,04,108,,22,50,051,41,24,03,043,26,27,55,193,46*79
$GPGSV,4,4,16,28,03,329,,32,27,245,44,33,23,240,36,39,43,192,37*79
$GPGLL,3946.86779,N,03249.29901,E,105841.00,A,A*60
$GPRMC,105842.00,A,3946.86715,N,03249.29926,E,2.640,159.23,021213,,,A*64
$GPVTG,159.23,T,,M,2.640,N,4.889,K,A*3C
$GPGGA,105842.00,3946.86715,N,03249.29926,E,1,09,1.08,1032.9,M,35.7,M,,*61
$GPGSA,A,3,27,03,14,06,18,22,11,32,19,,,,2.19,1.08,1.90*0C
$GPGSV,4,1,16,01,14,298,29,03,53,216,50,06,45,186,34,11,34,304,36*78
$GPGSV,4,2,16,14,56,116,46,16,00,206,,18,17,059,43,19,64,275,45*76
$GPGSV,4,3,16,21,04,108,,22,50,051,48,24,03,043,,27,55,193,47*75
$GPGSV,4,4,16,28,03,329,,32,27,245,48,33,23,240,43,39,43,192,32*72
$GPGLL,3946.86715,N,03249.29926,E,105842.00,A,A*6C
$GPRMC,105843.00,A,3946.86648,N,03249.29956,E,2.361,159.84,021213,,,A*60
$GPVTG,159.84,T,,M,2.361,N,4.372,K,A*38
$GPGGA,105843.00,3946.86648,N,03249.29956,E,1,08,1.41,1032.9,M,35.7,M,,*62
$GPGSA,A,3,27,03,14,06,18,22,32,19,,,,,2.37,1.41,1.90*0D
$GPGSV,4,1,16,01,14,298,30,03,53,216,50,06,45,186,42,11,34,304,*74
$GPGSV,4,2,16,14,56,116,45,16,00,206,,18,17,059,37,19,64,275,44*77
$GPGSV,4,3,16,21,04,108,,22,50,051,49,24,03,043,35,27,55,193,46*73
$GPGSV,4,4,16,28,03,329,,32,27,245,47,33,23,240,42,39,43,192,39*77
$GPGLL,3946.86648,N,03249.29956,E,105843.00,A,A*63
$GPRMC,105844.00,A,3946.86577,N,03249.29984,E,2.412,161.10,021213,,,A*62
$GPVTG,161.10,T,,M,2.412,N,4.467,K,A*3E
$GPGGA,105844.00,3946.86577,N,03249.29984,E,1,09,1.08,1032.7,M,35.7,M,,*67
$GPGSA,A,3,27,03,14,06,18,22,11,32,19,,,,2.19,1.08,1.90*0C
$GPGSV,4,1,16,01,14,298,30,03,53,216,48,06,45,186,42,11,34,304,32*7C
$GPGSV,4,2,16,14,56,116,43,16,00,206,,18,17,059,43,19,64,275,40*76
$GPGSV,4,3,16,21,04,108,,22,50,051,48,24,03,043,38,27,55,193,45*7C
$GPGSV,4,4,16,28,03,329,,32,27,245,45,33,23,240,37,39,43,192,39*77
$GPGLL,3946.86577,N,03249.29984,E,105844.00,A,A*64
$GPRMC,105845.00,A,3946.86511,N,03249.29996,E,2.325,165.98,021213,,,A*67
$GPVTG,165.98,T,,M,2.325,N,4.307,K,A*38
$GPGGA,105845.00,3946.86511,N,03249.29996,E,1,09,1.08,1032.7,M,35.7,M,,*65
$GPGSA,A,3,27,03,14,06,18,22,11,32,19,,,,2.19,1.08,1.90*0C
$GPGSV,4,1,16,01,14,298,30,03,53,216,50,06,45,186,41,11,34,304,32*76
$GPGSV,4,2,16,14,56,116,39,16,00,206,,18,17,059,43,19,64,275,42*79
$GPGSV,4,3,16,21,04,108,,22,50,051,47,24,03,043,34,27,55,193,46*7C
$GPGSV,4,4,16,28,03,329,,32,27,245,43,33,23,240,38,39,43,192,39*7E
$GPGLL,3946.86511,N,03249.29996,E,105845.00,A,A*66
$GPRMC,105846.00,A,3946.86441,N,03249.30004,E,2.465,170.11,021213,,,A*6C
$GPVTG,170.11,T,,M,2.465,N,4.566,K,A*3F
$GPGGA,105846.00,3946.86441,N,03249.30004,E,1,09,1.08,1032.7,M,35.7,M,,*68
$GPGSA,A,3,27,03,14,06,18,22,11,32,19,,,,2.19,1.08,1.90*0C
$GPGSV,4,1,16,01,14,298,31,03,53,216,49,06,45,186,41,11,34,304,30*7D
$GPGSV,4,2,16,14,56,116,44,16,00,206,,18,17,059,33,19,64,275,39*78
$GPGSV,4,3,16,21,04,108,,22,50,051,44,24,03,043,28,27,55,193,46*72
$GPGSV,4,4,16,28,03,329,,32,27,245,46,33,23,240,41,39,43,192,37*7B
$GPGLL,3946.86441,N,03249.30004,E,105846.00,A,A*6B
$GPRMC,105847.00,A,3946.86364,N,03249.30016,E,2.389,170.00,021213,,,A*6B
$GPVTG,170.00,T,,M,2.389,N,4.425,K,A*3C
$GPGGA,105847.00,3946.86364,N,03249.30016,E,1,09,1.29,1032.6,M,35.7,M,,*68
$GPGSA,A,3,27,03,14,06,18,22,11,32,19,,,,3.38,1.29,3.13*04
$GPGSV,4,1,16,01,14,298,31,03,53,216,49,06,45,186,43,11,34,304,36*79
$GPGSV,4,2,16,14,56,116,39,16,00,206,,18,17,059,25,19,64,275,36*7A
$GPGSV,4,3,16,21,04,108,26,22,50,051,39,24,03,043,28,27,55,193,49*73
$GPGSV,4,4,16,28,03,329,,32,27,245,45,33,23,240,40,39,43,192,40*79
$GPGLL,3946.86364,N,03249.30016,E,105847.00,A,A*69
$GPRMC,105848.00,A,3946.86294,N,03249.30024,E,2.496,172.12,021213,,,A*63
$GPVTG,172.12,T,,M,2.496,N,4.622,K,A*31
$GPGGA,105848.00,3946.86294,N,03249.30024,E,1,09,1.41,1032.8,M,35.7,M,,*68
$GPGSA,A,3,27,03,14,06,18,22,11,32,19,,,,2.37,1.41,1.90*0D
$GPGSV,4,1,16,01,14,298,27,03,53,216,51,06,45,186,45,11,34,304,42*72
$GPGSV,4,2,16,14,56,116,45,16,00,206,,18,17,059,32,19,64,275,38*79
$GPGSV,4,3,16,21,04,108,23,22,50,051,41,24,03,043,27,27,55,193,49*76
$GPGSV,4,4,16,28,03,329,,32,27,245,47,33,23,240,41,39,43,192,41*7B
$GPGLL,3946.86294,N,03249.30024,E,105848.00,A,A*69
$GPRMC,105849.00,A,3946.86228,N,03249.30027,E,2.317,172.76,021213,,,A*6A
$GPVTG,172.76,T,,M,2.317,N,4.290,K,A*30
$GPGGA,105849.00,3946.86228,N,03249.30027,E,1,09,1.08,1032.6,M,35.7,M,,*6E
$GPGSA,A,3,27,03,14,06,18,22,11,32,19,,,,2.19,1.08,1.90*0C
$GPGSV,4,1,16,01,14,298,32,03,53,216,49,06,45,186,45,11,34,304,39*73
$GPGSV,4,2,16,14,56,116,44,16,00,206,,18,17,059,35,19,64,275,31*76
$GPGSV,4,3,16,21,04,108,21,22,50,051,43,24,03,043,32,27,55,193,48*73
$GPGSV,4,4,16,28,03,329,,32,27,245,38,33,23,240,38,39,43,192,42*7E
$GPGLL,3946.86228,N,03249.30027,E,105849.00,A,A*6C
$GPRMC,105850.00,A,3946.86163,N,03249.30034,E,2.518,171.55,021213,,,A*67
$GPVTG,171.55,T,,M,2.518,N,4.663,K,A*33
$GPGGA,105850.00,3946.86163,N,03249.30034,E,1,09,1.08,1032.4,M,35.7,M,,*6A
$GPGSA,A,3,27,03,14,06,18,22,11,32,19,,,,2.19,1.08,1.90*0C
$GPGSV,4,1,16,01,14,298,31,03,53,216,51,06,45,186,44,11,34,304,37*76
$GPGSV,4,2,16,14,56,116,45,16,00,206,,18,17,059,39,19,64,275,42*7F
$GPGSV,4,3,16,21,04,108,,22,50,051,49,24,03,043,36,27,55,193,50*77
$GPGSV,4,4,16,28,03,329,,32,27,245,47,33,23,240,43,39,43,192,42*7A
$GPGLL,3946.86163,N,03249.30034,E,105850.00,A,A*6A
$GPRMC,105851.00,A,3946.86097,N,03249.30051,E,2.661,165.02,021213,,,A*65
$GPVTG,165.02,T,,M,2.661,N,4.928,K,A*39

$GPGGA,105851.00,3946.86097,N,03249.30051,E,1,09,1.08,1032.4,M,35.7,M,,*62
$GPGSA,A,3,27,03,14,06,18,22,11,32,19,,,,2.19,1.08,1.90*0C
$GPGSV,4,1,16,01,14,298,31,03,53,216,51,06,45,186,44,11,34,304,39*78
$GPGSV,4,2,16,14,56,116,44,16,00,206,,18,17,059,30,19,64,275,42*77
$GPGSV,4,3,16,21,04,108,,22,50,051,48,24,03,043,32,27,55,193,49*7A
$GPGSV,4,4,16,28,03,329,,32,27,245,48,33,23,240,43,39,43,192,41*76
$GPGLL,3946.86097,N,03249.30051,E,105851.00,A,A*62
$GPRMC,105852.00,A,3946.86026,N,03249.30074,E,2.997,164.86,021213,,,A*60
$GPVTG,164.86,T,,M,2.997,N,5.550,K,A*30
$GPGGA,105852.00,3946.86026,N,03249.30074,E,1,09,1.08,1032.4,M,35.7,M,,*6C
$GPGSA,A,3,27,03,14,06,18,22,11,32,19,,,,2.19,1.08,1.90*0C
$GPGSV,4,1,16,01,14,298,,03,53,216,50,06,45,186,45,11,34,304,39*7A
$GPGSV,4,2,16,14,56,116,43,16,00,206,,18,17,059,36,19,64,275,41*75
$GPGSV,4,3,16,21,04,108,,22,50,051,47,24,03,043,29,27,55,193,50*77
$GPGSV,4,4,16,28,03,329,,32,27,245,47,33,23,240,43,39,43,192,40*78
$GPGLL,3946.86026,N,03249.30074,E,105852.00,A,A*6C
$GPRMC,105853.00,A,3946.85955,N,03249.30087,E,2.476,169.34,021213,,,A*65
$GPVTG,169.34,T,,M,2.476,N,4.586,K,A*3C
$GPGGA,105853.00,3946.85955,N,03249.30087,E,1,09,1.08,1032.4,M,35.7,M,,*6F
$GPGSA,A,3,27,03,14,06,18,22,11,32,19,,,,2.19,1.08,1.90*0C
$GPGSV,4,1,16,01,14,298,28,03,53,216,50,06,45,186,44,11,34,304,37*7F
$GPGSV,4,2,16,14,56,116,44,16,00,206,,18,17,059,30,19,64,275,41*74
$GPGSV,4,3,16,21,04,108,22,22,50,051,48,24,03,043,34,27,55,193,49*7C
$GPGSV,4,4,16,28,03,329,,32,27,245,47,33,23,240,43,39,43,192,41*79
$GPGLL,3946.85955,N,03249.30087,E,105853.00,A,A*6F
$GPRMC,105854.00,A,3946.85892,N,03249.30095,E,2.316,169.88,021213,,,A*6D
$GPVTG,169.88,T,,M,2.316,N,4.289,K,A*32
$GPGGA,105854.00,3946.85892,N,03249.30095,E,1,09,1.08,1032.7,M,35.7,M,,*62
$GPGSA,A,3,27,03,14,06,18,22,11,32,19,,,,2.19,1.08,1.90*0C
$GPGSV,5,1,17,01,14,298,35,03,53,216,49,06,45,186,45,11,34,304,35*78
$GPGSV,5,2,17,14,56,116,44,16,00,206,,18,17,059,34,19,64,275,39*7F
$GPGSV,5,3,17,21,04,108,,22,50,051,47,24,03,043,33,27,55,193,48*75
$GPGSV,5,4,17,28,03,329,,30,,,25,32,27,245,45,33,23,240,41*4F
$GPGSV,5,5,17,39,43,192,42*4E
$GPGLL,3946.85892,N,03249.30095,E,105854.00,A,A*61
$GPRMC,105855.00,A,3946.85812,N,03249.30109,E,2.833,171.98,021213,,,A*64
$GPVTG,171.98,T,,M,2.833,N,5.247,K,A*35
$GPGGA,105855.00,3946.85812,N,03249.30109,E,1,09,1.08,1032.7,M,35.7,M,,*6F
$GPGSA,A,3,27,03,14,06,18,22,11,32,19,,,,2.19,1.08,1.90*0C
$GPGSV,4,1,16,01,14,298,34,03,53,216,51,06,45,186,43,11,34,304,38*7B
$GPGSV,4,2,16,14,56,116,44,16,00,206,,18,17,059,40,19,64,275,43*71
$GPGSV,4,3,16,21,04,108,,22,50,051,48,24,03,043,27,27,55,193,47*70
$GPGSV,4,4,16,28,03,329,,32,27,245,48,33,23,240,42,39,43,192,39*78
$GPGLL,3946.85812,N,03249.30109,E,105855.00,A,A*6C
$GPRMC,105856.00,A,3946.85709,N,03249.30136,E,3.779,170.71,021213,,,A*68
$GPVTG,170.71,T,,M,3.779,N,6.998,K,A*39
$GPGGA,105856.00,3946.85709,N,03249.30136,E,1,09,1.08,1032.5,M,35.7,M,,*67
$GPGSA,A,3,27,03,14,06,18,22,11,32,19,,,,2.19,1.08,1.90*0C
$GPGSV,4,1,16,01,14,298,33,03,53,216,50,06,45,186,45,11,34,304,33*70
$GPGSV,4,2,16,14,56,116,45,16,00,206,,18,17,059,43,19,64,275,37*70
$GPGSV,4,3,16,21,04,108,,22,50,051,50,24,03,043,,27,55,193,50*7A
$GPGSV,4,4,16,28,03,329,,32,27,245,45,33,23,240,40,39,43,192,40*79
$GPGLL,3946.85709,N,03249.30136,E,105856.00,A,A*66
$GPRMC,105857.00,A,3946.85610,N,03249.30164,E,3.536,169.12,021213,,,A*63
$GPVTG,169.12,T,,M,3.536,N,6.549,K,A*3D
$GPGGA,105857.00,3946.85610,N,03249.30164,E,1,09,1.08,1032.4,M,35.7,M,,*69
$GPGSA,A,3,27,03,14,06,18,22,11,32,19,,,,2.19,1.08,1.90*0C
$GPGSV,4,1,16,01,14,298,,03,53,216,50,06,45,186,43,11,34,304,35*70
$GPGSV,4,2,16,14,56,116,44,16,00,206,,18,17,059,44,19,64,275,40*76
$GPGSV,4,3,16,21,04,108,,22,50,051,49,24,03,043,40,27,55,193,48*7F
$GPGSV,4,4,16,28,03,329,,32,27,245,44,33,23,240,41,39,43,192,39*77
$GPGLL,3946.85610,N,03249.30164,E,105857.00,A,A*69
$GPRMC,105858.00,A,3946.85529,N,03249.30174,E,3.282,171.08,021213,,,A*6E
$GPVTG,171.08,T,,M,3.282,N,6.079,K,A*31
$GPGGA,105858.00,3946.85529,N,03249.30174,E,1,09,1.08,1032.3,M,35.7,M,,*69
$GPGSA,A,3,27,03,14,06,18,22,11,32,19,,,,2.19,1.08,1.90*0C
$GPGSV,4,1,16,01,14,298,,03,53,216,50,06,45,186,44,11,34,304,38*7A
$GPGSV,4,2,16,14,56,116,45,16,00,206,,18,17,059,41,19,64,275,41*73
$GPGSV,4,3,16,21,04,108,,22,50,051,47,24,03,043,27,27,55,193,49*71
$GPGSV,4,4,16,28,03,329,,32,27,245,46,33,23,240,41,39,43,192,40*7B
$GPGLL,3946.85529,N,03249.30174,E,105858.00,A,A*6E
$GPRMC,105859.00,A,3946.85445,N,03249.30192,E,3.344,168.19,021213,,,A*6F
$GPVTG,168.19,T,,M,3.344,N,6.194,K,A*30
$GPGGA,105859.00,3946.85445,N,03249.30192,E,1,09,1.08,1032.6,M,35.7,M,,*6E
$GPGSA,A,3,27,03,14,06,18,22,11,32,19,,,,2.19,1.08,1.90*0C
$GPGSV,4,1,16,01,14,298,,03,53,216,50,06,45,186,43,11,34,304,39*7C
$GPGSV,4,2,16,14,56,116,43,16,00,206,,18,17,059,44,19,64,275,43*72
$GPGSV,4,3,16,21,04,108,,22,50,051,48,24,03,043,36,27,55,193,49*7E
$GPGSV,4,4,16,28,03,329,,32,27,245,48,33,23,240,42,39,43,192,42*74
$GPGLL,3946.85445,N,03249.30192,E,105859.00,A,A*6C
$GPRMC,105900.00,A,3946.85359,N,03249.30223,E,3.137,164.92,021213,,,A*68
$GPVTG,164.92,T,,M,3.137,N,5.809,K,A*37
$GPGGA,105900.00,3946.85359,N,03249.30223,E,1,09,1.08,1032.6,M,35.7,M,,*60
$GPGSA,A,3,27,03,14,06,18,22,11,32,19,,,,2.19,1.08,1.90*0C
$GPGSV,4,1,16,01,14,298,,03,53,216,51,06,45,186,42,11,34,304,30*75
$GPGSV,4,2,16,14,56,116,43,16,00,206,,18,17,059,44,19,64,275,42*73
$GPGSV,4,3,16,21,04,108,,22,50,051,48,24,03,043,33,27,55,193,49*7B
$GPGSV,4,4,16,28,03,329,,32,27,245,46,33,23,240,42,39,43,192,41*79
$GPGLL,3946.85359,N,03249.30223,E,105900.00,A,A*62
$GPRMC,105901.00,A,3946.85271,N,03249.30256,E,3.355,164.34,021213,,,A*6A
$GPVTG,164.34,T,,M,3.355,N,6.213,K,A*3F
$GPGGA,105901.00,3946.85271,N,03249.30256,E,1,09,1.41,1032.7,M,35.7,M,,*64
$GPGSA,A,3,27,03,14,06,18,22,11,32,19,,,,2.37,1.41,1.90*0D
$GPGSV,4,1,16,01,14,298,,03,53,216,50,06,45,186,44,11,34,304,32*70
$GPGSV,4,2,16,14,56,116,43,16,00,206,,18,17,059,41,19,64,275,43*77
$GPGSV,4,3,16,21,04,108,,22,50,051,49,24,03,043,26,27,55,193,49*7E
$GPGSV,4,4,16,28,03,329,,32,27,245,48,33,23,240,42,39,43,192,41*77
$GPGLL,3946.85271,N,03249.30256,E,105901.00,A,A*6A
$GPRMC,105902.00,A,3946.85183,N,03249.30285,E,3.285,164.18,021213,,,A*6B
$GPVTG,164.18,T,,M,3.285,N,6.085,K,A*30
$GPGGA,105902.00,3946.85183,N,03249.30285,E,1,09,1.08,1032.8,M,35.7,M,,*65
$GPGSA,A,3,27,03,14,06,18,22,11,32,19,,,,2.19,1.08,1.90*0C
$GPGSV,4,1,16,01,14,298,34,03,53,216,50,06,45,186,45,11,34,304,38*7C
$GPGSV,4,2,16,14,56,116,45,16,00,206,,18,17,059,34,19,64,275,44*74
$GPGSV,4,3,16,21,04,108,,22,50,051,47,24,03,043,,27,55,193,49*74
$GPGSV,4,4,16,28,03,329,,32,27,245,47,33,23,240,42,39,43,192,40*79
$GPGLL,3946.85183,N,03249.30285,E,105902.00,A,A*69
$GPRMC,105903.00,A,3946.85100,N,03249.30307,E,3.112,167.03,021213,,,A*6E
$GPVTG,167.03,T,,M,3.112,N,5.763,K,A*38
$GPGGA,105903.00,3946.85100,N,03249.30307,E,1,09,1.08,1032.9,M,35.7,M,,*65
$GPGSA,A,3,27,03,14,06,18,22,11,32,19,,,,2.19,1.08,1.90*0C
$GPGSV,4,1,16,01,14,298,30,03,53,216,50,06,45,186,42,11,34,304,33*74
$GPGSV,4,2,16,14,56,116,44,16,00,206,,18,17,059,34,19,64,275,45*74
$GPGSV,4,3,16,21,04,108,,22,50,051,47,24,03,043,,27,55,193,48*75
$GPGSV,4,4,16,28,03,329,,32,27,245,47,33,23,240,43,39,43,192,41*79
$GPGLL,3946.85100,N,03249.30307,E,105903.00,A,A*68
$GPRMC,105904.00,A,3946.85023,N,03249.30336,E,2.847,165.72,021213,,,A*67
$GPVTG,165.72,T,,M,2.847,N,5.272,K,A*31
$GPGGA,105904.00,3946.85023,N,03249.30336,E,1,09,1.08,1032.9,M,35.7,M,,*60
$GPGSA,A,3,27,03,14,06,18,22,11,32,19,,,,2.19,1.08,1.90*0C
$GPGSV,4,1,16,01,14,298,33,03,53,216,49,06,45,186,39,11,34,304,34*74
$GPGSV,4,2,16,14,56,116,46,16,00,206,,18,17,059,37,19,64,275,47*77
$GPGSV,4,3,16,21,04,108,,22,50,051,43,24,03,043,,27,55,193,48*71
$GPGSV,4,4,16,28,03,329,,32,27,245,48,33,23,240,40,39,43,192,37*74
$GPGLL,3946.85023,N,03249.30336,E,105904.00,A,A*6D
$GPRMC,105905.00,A,3946.84947,N,03249.30367,E,3.012,161.91,021213,,,A*68
$GPVTG,161.91,T,,M,3.012,N,5.578,K,A*3C
$GPGGA,105905.00,3946.84947,N,03249.30367,E,1,09,1.08,1032.8,M,35.7,M,,*6E
$GPGSA,A,3,27,03,14,06,18,22,11,32,19,,,,2.19,1.08,1.90*0C
$GPGSV,4,1,16,01,14,298,36,03,53,216,49,06,45,186,44,11,34,304,42*7A
$GPGSV,4,2,16,14,56,116,48,16,00,206,,18,17,059,35,19,64,275,31*7A
$GPGSV,4,3,16,21,04,108,,22,50,051,44,24,03,043,,27,55,193,51*7E
$GPGSV,4,4,16,28,03,329,,32,27,245,45,33,23,240,40,39,43,191,39*74
$GPGLL,3946.84947,N,03249.30367,E,105905.00,A,A*62
$GPRMC,105906.00,A,3946.84885,N,03249.30391,E,2.435,162.07,021213,,,A*61
$GPVTG,162.07,T,,M,2.435,N,4.509,K,A*37
$GPGGA,105906.00,3946.84885,N,03249.30391,E,1,09,1.08,1033.1,M,35.7,M,,*63
$GPGSA,A,3,27,03,14,06,18,22,11,32,19,,,,2.19,1.08,1.90*0C
$GPGSV,4,1,16,01,14,298,37,03,53,216,47,06,45,186,43,11,34,304,44*74
$GPGSV,4,2,16,14,56,116,46,16,00,206,,18,17,059,33,19,64,275,39*7A
$GPGSV,4,3,16,21,04,108,,22,50,051,41,24,03,043,,27,55,193,46*7D
$GPGSV,4,4,16,28,03,329,,32,27,245,33,33,23,240,32,39,43,191,41*7F
$GPGLL,3946.84885,N,03249.30391,E,105906.00,A,A*67
$GPRMC,105907.00,A,3946.84808,N,03249.30408,E,2.871,168.51,021213,,,A*67
$GPVTG,168.51,T,,M,2.871,N,5.317,K,A*3A
$GPGGA,105907.00,3946.84808,N,03249.30408,E,1,09,1.08,1033.0,M,35.7,M,,*61
$GPGSA,A,3,27,03,14,06,18,22,11,32,19,,,,2.19,1.08,1.90*0C
$GPGSV,4,1,16,01,14,298,32,03,53,216,43,06,45,186,43,11,34,304,42*73
$GPGSV,4,2,16,14,56,116,47,16,00,206,,18,17,059,34,19,64,275,34*71
$GPGSV,4,3,16,21,04,108,,22,50,051,44,24,03,043,,27,55,193,46*78
$GPGSV,4,4,16,28,03,329,,32,27,245,38,33,23,240,29,39,43,191,40*7F
$GPGLL,3946.84808,N,03249.30408,E,105907.00,A,A*64
$GPRMC,105908.00,A,3946.84721,N,03249.30429,E,3.341,168.29,021213,,,A*69
$GPVTG,168.29,T,,M,3.341,N,6.187,K,A*34
$GPGGA,105908.00,3946.84721,N,03249.30429,E,1,09,1.08,1033.0,M,35.7,M,,*69
$GPGSA,A,3,27,03,14,06,18,22,11,32,19,,,,2.19,1.08,1.90*0C
$GPGSV,4,1,16,01,14,298,33,03,53,216,49,06,45,186,45,11,34,304,39*72
$GPGSV,4,2,16,14,56,116,47,16,00,206,,18,17,059,30,19,64,275,38*79
$GPGSV,4,3,16,21,04,108,,22,50,051,41,24,03,043,,27,55,193,46*7D
$GPGSV,4,4,16,28,03,329,,32,27,245,37,33,23,240,34,39,43,191,42*7E
$GPGLL,3946.84721,N,03249.30429,E,105908.00,A,A*6C
$GPRMC,105909.00,A,3946.84632,N,03249.30466,E,3.473,165.10,021213,,,A*61
$GPVTG,165.10,T,,M,3.473,N,6.432,K,A*3E
$GPGGA,105909.00,3946.84632,N,03249.30466,E,1,09,1.08,1033.2,M,35.7,M,,*62
$GPGSA,A,3,27,03,14,06,18,22,11,32,19,,,,2.19,1.08,1.90*0C
$GPGSV,4,1,16,01,14,298,33,03,53,216,50,06,45,186,47,11,34,304,40*76
$GPGSV,4,2,16,14,56,116,45,16,00,206,,18,17,059,37,19,64,275,40*73
$GPGSV,4,3,16,21,04,108,26,22,50,051,46,24,03,043,,27,55,193,49*71
$GPGSV,4,4,16,28,03,329,28,32,27,245,32,33,23,240,30,39,43,191,43*74
$GPGLL,3946.84632,N,03249.30466,E,105909.00,A,A*65
$GPRMC,105910.00,A,3946.84549,N,03249.30472,E,3.323,172.53,021213,,,A*60
$GPVTG,172.53,T,,M,3.323,N,6.155,K,A*39
$GPGGA,105910.00,3946.84549,N,03249.30472,E,1,09,1.08,1033.6,M,35.7,M,,*64
$GPGSA,A,3,27,03,14,06,18,22,11,32,19,,,,2.19,1.08,1.90*0C
$GPGSV,4,1,16,01,14,298,28,03,53,216,51,06,45,186,46,11,34,304,42*7E
$GPGSV,4,2,16,14,56,116,45,16,00,206,,18,17,059,40,19,64,275,38*7C
$GPGSV,4,3,16,21,04,108,,22,50,051,44,24,03,043,,27,55,193,49*77
$GPGSV,4,4,16,28,03,329,27,32,27,245,45,33,23,240,42,39,43,191,42*7F
$GPGLL,3946.84549,N,03249.30472,E,105910.00,A,A*67
$GPRMC,105911.00,A,3946.84461,N,03249.30478,E,2.977,175.04,021213,,,A*6F
$GPVTG,175.04,T,,M,2.977,N,5.514,K,A*34
$GPGGA,105911.00,3946.84461,N,03249.30478,E,1,09,1.89,1033.6,M,35.7,M,,*6D
$GPGSA,A,3,27,03,14,06,18,22,11,32,19,,,,3.04,1.89,2.38*09
$GPGSV,4,1,16,01,14,298,28,03,53,216,49,06,45,186,44,11,34,304,40*77
$GPGSV,4,2,16,14,56,116,44,16,00,206,,18,17,059,33,19,64,275,37*76
$GPGSV,4,3,16,21,04,108,22,22,50,051,45,24,03,043,,27,55,193,48*77
$GPGSV,4,4,16,28,03,329,24,32,27,245,47,33,23,240,41,39,43,191,40*7F
$GPGLL,3946.84461,N,03249.30478,E,105911.00,A,A*67
$GPRMC,105912.00,A,3946.84376,N,03249.30483,E,2.934,176.11,021213,,,A*69
$GPVTG,176.11,T,,M,2.934,N,5.433,K,A*30
$GPGGA,105912.00,3946.84376,N,03249.30483,E,1,09,1.89,1033.6,M,35.7,M,,*6B

$GPGSA,A,3,27,03,14,06,18,22,11,32,19,,,,3.04,1.89,2.38*09
$GPGSV,4,1,16,01,14,298,28,03,53,216,50,06,45,186,46,11,34,304,36*7C
$GPGSV,4,2,16,14,56,116,44,16,00,206,,18,17,059,31,19,64,275,41*75
$GPGSV,4,3,16,21,04,108,,22,50,051,44,24,03,043,,27,55,193,49*77
$GPGSV,4,4,16,28,03,329,23,32,27,245,43,33,23,240,41,39,43,191,41*7D
$GPGLL,3946.84376,N,03249.30483,E,105912.00,A,A*61
$GPRMC,105913.00,A,3946.84292,N,03249.30495,E,2.878,176.51,021213,,,A*69
$GPVTG,176.51,T,,M,2.878,N,5.329,K,A*31
$GPGGA,105913.00,3946.84292,N,03249.30495,E,1,09,1.89,1033.3,M,35.7,M,,*63
$GPGSA,A,3,27,03,14,06,18,22,11,32,19,,,,3.04,1.89,2.38*09
$GPGSV,4,1,16,01,14,298,32,03,53,216,50,06,45,186,46,11,34,304,43*75
$GPGSV,4,2,16,14,56,116,46,16,00,206,,18,17,059,39,19,64,275,39*70
$GPGSV,4,3,16,21,04,108,27,22,50,051,46,24,03,043,,27,55,193,47*7E
$GPGSV,4,4,16,28,03,329,21,32,27,245,50,33,23,240,45,39,43,191,42*7A
$GPGLL,3946.84292,N,03249.30495,E,105913.00,A,A*6C
$GPRMC,105914.00,A,3946.84227,N,03249.30509,E,2.669,168.20,021213,,,A*63
$GPVTG,168.20,T,,M,2.669,N,4.943,K,A*31
$GPGGA,105914.00,3946.84227,N,03249.30509,E,1,09,1.08,1033.7,M,35.7,M,,*63
$GPGSA,A,3,27,03,14,06,18,22,11,32,19,,,,2.19,1.08,1.90*0C
$GPGSV,4,1,16,01,14,298,33,03,53,216,49,06,45,186,42,11,34,304,42*79
$GPGSV,4,2,16,14,56,116,45,16,00,206,,18,17,059,37,19,64,275,42*71
$GPGSV,4,3,16,21,04,108,25,22,50,051,42,24,03,043,,27,55,193,48*77
$GPGSV,4,4,16,28,03,329,,32,27,245,50,33,23,240,43,39,43,191,43*7E
$GPGLL,3946.84227,N,03249.30509,E,105914.00,A,A*61
$GPRMC,105915.00,A,3946.84152,N,03249.30521,E,2.985,170.16,021213,,,A*68
$GPVTG,170.16,T,,M,2.985,N,5.527,K,A*3F
$GPGGA,105915.00,3946.84152,N,03249.30521,E,1,09,1.08,1033.6,M,35.7,M,,*68
$GPGSA,A,3,27,03,14,06,18,22,11,32,19,,,,2.19,1.08,1.90*0C
$GPGSV,4,1,16,01,14,298,34,03,53,216,50,06,45,186,45,11,34,304,41*72
$GPGSV,4,2,16,14,56,116,46,16,00,206,,18,17,059,36,19,64,275,36*70
$GPGSV,4,3,16,21,04,108,,22,50,051,45,24,03,043,,27,55,193,50*7E
$GPGSV,4,4,16,28,03,329,,32,27,245,48,33,23,240,44,39,43,191,40*73
$GPGLL,3946.84152,N,03249.30521,E,105915.00,A,A*6B
$GPRMC,105916.00,A,3946.84058,N,03249.30545,E,2.499,171.94,021213,,,A*69
$GPVTG,171.94,T,,M,2.499,N,4.627,K,A*36
$GPGGA,105916.00,3946.84058,N,03249.30545,E,1,09,1.41,1034.8,M,35.7,M,,*66
$GPGSA,A,3,27,03,14,06,18,22,11,32,19,,,,2.37,1.41,1.91*0C
$GPGSV,4,1,16,01,14,298,,03,53,216,50,06,45,186,45,11,34,304,41*75
$GPGSV,4,2,16,14,56,116,47,16,00,206,,18,17,059,33,19,64,275,38*7A
$GPGSV,4,3,16,21,04,108,31,22,50,051,47,24,03,043,,27,55,193,48*77
$GPGSV,4,4,16,28,03,329,,32,27,245,45,33,23,240,42,39,43,191,40*78
$GPGLL,3946.84058,N,03249.30545,E,105916.00,A,A*61
$GPRMC,105917.00,A,3946.84003,N,03249.30556,E,2.347,170.35,021213,,,A*6A
$GPVTG,170.35,T,,M,2.347,N,4.347,K,A*3B
$GPGGA,105917.00,3946.84003,N,03249.30556,E,1,09,1.08,1034.8,M,35.7,M,,*66
$GPGSA,A,3,27,03,14,06,18,22,11,32,19,,,,2.19,1.08,1.90*0C
$GPGSV,4,1,16,01,14,298,,03,53,216,50,06,45,186,45,11,34,304,38*7B
$GPGSV,4,2,16,14,56,116,47,16,00,206,,18,17,059,38,19,64,275,36*7F
$GPGSV,4,3,16,21,04,108,31,22,50,051,44,24,03,043,,27,55,193,50*7D
$GPGSV,4,4,16,28,03,329,27,32,27,245,44,33,23,240,39,39,43,191,42*72
$GPGLL,3946.84003,N,03249.30556,E,105917.00,A,A*6C
$GPRMC,105918.00,A,3946.83943,N,03249.30576,E,2.138,168.17,021213,,,A*6E
$GPVTG,168.17,T,,M,2.138,N,3.959,K,A*3A
$GPGGA,105918.00,3946.83943,N,03249.30576,E,1,09,1.08,1035.1,M,35.7,M,,*69
$GPGSA,A,3,27,03,14,06,18,22,11,32,19,,,,2.19,1.08,1.90*0C
$GPGSV,4,1,16,01,14,298,31,03,53,216,50,06,45,186,44,11,34,304,36*76
$GPGSV,4,2,16,14,56,116,47,16,00,206,,18,17,059,21,19,64,275,33*72
$GPGSV,4,3,16,21,04,108,25,22,50,051,45,24,03,043,,27,55,193,49*71
$GPGSV,4,4,16,28,03,329,25,32,27,245,45,33,23,240,40,39,43,191,41*7C
$GPGLL,3946.83943,N,03249.30576,E,105918.00,A,A*6B
$GPRMC,105919.00,A,3946.83894,N,03249.30582,E,2.454,167.46,021213,,,A*6B
$GPVTG,167.46,T,,M,2.454,N,4.545,K,A*38
$GPGGA,105919.00,3946.83894,N,03249.30582,E,1,09,1.08,1036.0,M,35.7,M,,*6A
$GPGSA,A,3,27,03,14,06,18,22,11,32,19,,,,2.19,1.08,1.90*0C
$GPGSV,4,1,16,01,14,298,32,03,53,216,50,06,45,186,41,11,34,304,41*70
$GPGSV,4,2,16,14,56,116,47,16,00,206,,18,17,059,38,19,64,275,40*7E
$GPGSV,4,3,16,21,04,108,23,22,50,051,44,24,03,043,,27,55,193,47*78
$GPGSV,4,4,16,28,03,329,25,32,27,245,47,33,23,240,42,39,43,191,40*7D
$GPGLL,3946.83894,N,03249.30582,E,105919.00,A,A*6A
$GPRMC,105920.00,A,3946.83811,N,03249.30622,E,2.604,164.15,021213,,,A*67
$GPVTG,164.15,T,,M,2.604,N,4.823,K,A*37
$GPGGA,105920.00,3946.83811,N,03249.30622,E,1,09,1.89,1035.7,M,35.7,M,,*69
$GPGSA,A,3,27,03,14,06,18,22,11,32,19,,,,3.03,1.89,2.38*0E
$GPGSV,4,1,16,01,15,298,34,03,53,216,50,06,45,186,40,11,34,304,40*77
$GPGSV,4,2,16,14,56,116,47,16,00,206,,18,17,059,36,19,64,275,37*70
$GPGSV,4,3,16,21,04,108,,22,50,051,45,24,03,043,,27,55,193,48*77
$GPGSV,4,4,16,28,03,329,,32,27,245,46,33,23,240,42,39,43,191,39*75
$GPGLL,3946.83811,N,03249.30622,E,105920.00,A,A*64
$GPRMC,105921.00,A,3946.83731,N,03249.30658,E,2.561,163.95,021213,,,A*69
$GPVTG,163.95,T,,M,2.561,N,4.742,K,A*30
$GPGGA,105921.00,3946.83731,N,03249.30658,E,1,09,1.41,1035.6,M,35.7,M,,*6D
$GPGSA,A,3,27,03,14,06,18,22,11,32,19,,,,2.37,1.41,1.91*0C
$GPGSV,4,1,16,01,15,298,34,03,53,216,49,06,45,186,44,11,34,304,44*7F
$GPGSV,4,2,16,14,56,116,46,16,00,206,,18,17,059,35,19,64,275,33*76
$GPGSV,4,3,16,21,04,108,25,22,50,051,45,24,03,043,,27,55,193,49*71

$GPGSV,4,4,16,28,03,329,22,32,27,245,44,33,23,240,41,39,43,191,41*7B
$GPGLL,3946.83731,N,03249.30658,E,105921.00,A,A*65
$GPRMC,105922.00,A,3946.83665,N,03249.30685,E,2.573,158.35,021213,,,A*6B
$GPVTG,158.35,T,,M,2.573,N,4.765,K,A*34
$GPGGA,105922.00,3946.83665,N,03249.30685,E,1,09,1.08,1035.5,M,35.7,M,,*60
$GPGSA,A,3,27,03,14,06,18,22,11,32,19,,,,2.19,1.08,1.90*0C
$GPGSV,4,1,16,01,15,298,31,03,53,216,50,06,45,186,45,11,34,304,40*77
$GPGSV,4,2,16,14,56,116,46,16,00,206,,18,17,059,28,19,64,275,32*7B
$GPGSV,4,3,16,21,04,108,,22,50,051,44,24,03,043,,27,55,193,50*7F
$GPGSV,4,4,16,28,03,329,25,32,27,245,43,33,23,240,40,39,43,191,42*79
$GPGLL,3946.83665,N,03249.30685,E,105922.00,A,A*66
$GPRMC,105923.00,A,3946.83611,N,03249.30717,E,2.513,155.71,021213,,,A*68
$GPVTG,155.71,T,,M,2.513,N,4.654,K,A*3C
$GPGGA,105923.00,3946.83611,N,03249.30717,E,1,09,1.08,1036.5,M,35.7,M,,*6B
$GPGSA,A,3,27,03,14,06,18,22,11,32,19,,,,2.19,1.08,1.90*0C
$GPGSV,4,1,16,01,15,298,32,03,53,216,49,06,45,186,47,11,34,304,41*7F
$GPGSV,4,2,16,14,56,116,46,16,00,206,,18,17,059,32,19,64,275,39*7B
$GPGSV,4,3,16,21,04,108,,22,50,051,44,24,03,043,,27,55,193,50*7F
$GPGSV,4,4,16,28,03,329,27,32,27,245,38,33,23,240,34,39,43,191,44*72
$GPGLL,3946.83611,N,03249.30717,E,105923.00,A,A*6E
$GPRMC,105924.00,A,3946.83537,N,03249.30760,E,3.318,155.34,021213,,,A*65
$GPVTG,155.34,T,,M,3.318,N,6.145,K,A*34
$GPGGA,105924.00,3946.83537,N,03249.30760,E,1,09,1.18,1036.4,M,35.7,M,,*6B
$GPGSA,A,3,27,03,14,06,18,22,11,32,19,,,,2.53,1.18,2.24*0F
$GPGSV,4,1,16,01,15,298,32,03,53,216,49,06,45,186,48,11,34,304,43*72
$GPGSV,4,2,16,14,56,116,47,16,00,206,,18,17,059,32,19,64,275,39*7A
$GPGSV,4,3,16,21,04,108,,22,50,051,43,24,03,043,,27,55,193,50*78
$GPGSV,4,4,16,28,03,329,32,32,27,245,40,33,23,240,36,39,43,191,44*7B
$GPGLL,3946.83537,N,03249.30760,E,105924.00,A,A*6E
$GPRMC,105925.00,A,3946.83460,N,03249.30794,E,2.857,158.28,021213,,,A*6D
$GPVTG,158.28,T,,M,2.857,N,5.290,K,A*3D
$GPGGA,105925.00,3946.83460,N,03249.30794,E,1,09,1.08,1036.5,M,35.7,M,,*62
$GPGSA,A,3,27,03,14,06,18,22,11,32,19,,,,2.19,1.08,1.90*0C
$GPGSV,4,1,16,01,15,298,32,03,53,216,50,06,44,186,46,11,34,304,38*79
$GPGSV,4,2,16,14,56,116,45,16,00,206,,18,17,059,31,19,64,275,37*75
$GPGSV,4,3,16,21,04,108,,22,50,051,45,24,03,043,,27,55,193,49*76
$GPGSV,4,4,16,28,03,329,26,32,27,245,45,33,23,240,40,39,43,191,41*7F
$GPGLL,3946.83460,N,03249.30794,E,105925.00,A,A*67
$GPRMC,105926.00,A,3946.83387,N,03249.30823,E,2.770,163.19,021213,,,A*63
$GPVTG,163.19,T,,M,2.770,N,5.130,K,A*34
$GPGGA,105926.00,3946.83387,N,03249.30823,E,1,09,1.18,1036.2,M,35.7,M,,*6A
$GPGSA,A,3,27,03,14,06,18,22,11,32,19,,,,2.53,1.18,2.24*0F
$GPGSV,5,1,17,01,15,298,35,03,53,216,50,06,44,186,45,11,34,304,40*72
$GPGSV,5,2,17,14,56,116,47,16,00,206,,18,17,059,31,19,64,275,41*76
$GPGSV,5,3,17,21,04,108,,22,50,051,46,24,03,043,,27,55,193,49*75
$GPGSV,5,4,17,28,03,329,25,30,,,30,32,27,245,46,33,23,240,43*4D
$GPGSV,5,5,17,39,43,191,40*4F
$GPGLL,3946.83387,N,03249.30823,E,105926.00,A,A*69
