LI’º¢ŠRº’j
$GPGSV,3,3,11,31,39,092,43,32,71,000,40,39,43,191,39*40
$GPGLL,3946.87746,N,03249.29655,E,134000.00,A,A*6C
$GPRMC,134001.00,A,3946.87745,N,03249.29659,E,0.062,,011213,,,A*7F
$GPVTG,,T,,M,0.062,N,0.114,K,A*23
$GPGGA,134001.00,3946.87745,N,03249.29659,E,1,09,0.92,1028.3,M,35.7,M,,*6C
$GPGSA,A,3,01,32,11,20,31,23,14,19,17,,,,1.51,0.92,1.20*05
$GPGSV,3,1,11,01,78,276,46,11,59,198,46,13,01,223,,14,18,046,29*7F
$GPGSV,3,2,11,17,15,314,31,19,13,194,30,20,46,296,45,23,30,227,41*77
$GPGSV,3,3,11,31,39,092,43,32,71,000,40,39,43,191,40*4E
$GPGLL,3946.87745,N,03249.29659,E,134001.00,A,A*62
$GPRMC,134002.00,A,3946.87742,N,03249.29663,E,0.199,,011213,,,A*77
$GPVTG,,T,,M,0.199,N,0.368,K,A*2F
$GPGGA,134002.00,3946.87742,N,03249.29663,E,1,09,0.92,1028.3,M,35.7,M,,*61
$GPGSA,A,3,01,32,11,20,31,23,14,19,17,,,,1.51,0.92,1.20*05
$GPGSV,3,1,11,01,78,276,48,11,59,198,44,13,01,223,,14,18,046,23*79
$GPGSV,3,2,11,17,15,314,32,19,13,194,29,20,46,296,43,23,30,227,35*79
$GPGSV,3,3,11,31,39,092,43,32,71,000,40,39,43,191,38*41
$GPGLL,3946.87742,N,03249.29663,E,134002.00,A,A*6F
$GPRMC,134003.00,A,3946.87759,N,03249.29675,E,0.978,316.72,011213,,,A*63
$GPVTG,316.72,T,,M,0.978,N,1.811,K,A*33
$GPGGA,134003.00,3946.87759,N,03249.29675,E,1,09,0.92,1028.3,M,35.7,M,,*6D
$GPGSA,A,3,01,32,11,20,31,23,14,19,17,,,,1.51,0.92,1.20*05
$GPGSV,3,1,11,01,78,276,46,11,59,198,43,13,01,223,,14,18,046,29*7A
$GPGSV,3,2,11,17,15,314,30,19,13,194,29,20,46,296,41,23,30,227,39*75
$GPGSV,3,3,11,31,39,092,40,32,71,000,36,39,43,191,35*4E
$GPGLL,3946.87759,N,03249.29675,E,134003.00,A,A*63
$GPRMC,134004.00,A,3946.87807,N,03249.29683,E,1.938,351.47,011213,,,A*69
$GPVTG,351.47,T,,M,1.938,N,3.588,K,A*3C
$GPGGA,134004.00,3946.87807,N,03249.29683,E,1,09,0.92,1027.8,M,35.7,M,,*63
$GPGSA,A,3,01,32,11,20,31,23,14,19,17,,,,1.51,0.92,1.20*05
$GPGSV,3,1,11,01,78,276,46,11,59,198,47,13,01,223,,14,18,046,30*76
$GPGSV,3,2,11,17,15,314,31,19,13,194,29,20,46,296,35,23,30,227,42*7B
$GPGSV,3,3,11,31,39,092,39,32,71,000,39,39,43,191,40*4D
$GPGLL,3946.87807,N,03249.29683,E,134004.00,A,A*69
$GPRMC,134005.00,A,3946.87874,N,03249.29691,E,2.555,2.19,011213,,,A*65
$GPVTG,2.19,T,,M,2.555,N,4.732,K,A*32
$GPGGA,134005.00,3946.87874,N,03249.29691,E,1,09,0.92,1027.4,M,35.7,M,,*69
$GPGSA,A,3,01,32,11,20,31,23,14,19,17,,,,1.51,0.92,1.20*05
$GPGSV,3,1,12,01,78,276,46,11,59,198,47,13,01,223,,14,18,046,31*74
$GPGSV,3,2,12,17,15,314,33,19,13,194,28,20,46,297,36,23,30,227,45*7E
$GPGSV,3,3,12,31,39,092,41,32,71,000,41,33,23,240,36,39,43,191,40*7C
$GPGLL,3946.87874,N,03249.29691,E,134005.00,A,A*6F
$GPRMC,134006.00,A,3946.87947,N,03249.29697,E,2.651,1.59,011213,,,A*61
$GPVTG,1.59,T,,M,2.651,N,4.911,K,A*3D
$GPGGA,134006.00,3946.87947,N,03249.29697,E,1,09,0.92,1027.2,M,35.7,M,,*6B
$GPGSA,A,3,01,32,11,20,31,23,14,19,17,,,,1.51,0.92,1.20*05
$GPGSV,3,1,12,01,78,276,47,11,59,198,46,13,01,223,,14,18,046,31*74
$GPGSV,3,2,12,17,15,314,32,19,13,194,23,20,46,297,37,23,30,227,41*71
$GPGSV,3,3,12,31,39,092,41,32,71,000,40,33,23,240,38,39,43,191,39*7D
$GPGLL,3946.87947,N,03249.29697,E,134006.00,A,A*6B
$GPRMC,134007.00,A,3946.88018,N,03249.29703,E,2.539,3.22,011213,,,A*63
$GPVTG,3.22,T,,M,2.539,N,4.703,K,A*33
$GPGGA,134007.00,3946.88018,N,03249.29703,E,1,09,0.92,1026.9,M,35.7,M,,*60
$GPGSA,A,3,01,32,11,20,31,23,14,19,17,,,,1.51,0.92,1.20*05
$GPGSV,3,1,12,01,78,276,46,11,59,198,44,13,01,223,,14,18,046,30*76
$GPGSV,3,2,12,17,15,314,27,19,13,194,25,20,46,297,29,23,30,227,42*7F
$GPGSV,3,3,12,31,39,092,41,32,71,000,41,33,23,240,36,39,43,191,41*7D
$GPGLL,3946.88018,N,03249.29703,E,134007.00,A,A*6A
$GPRMC,134008.00,A,3946.88091,N,03249.29705,E,2.602,0.99,011213,,,A*63
$GPVTG,0.99,T,,M,2.602,N,4.819,K,A*3F
$GPGGA,134008.00,3946.88091,N,03249.29705,E,1,09,0.92,1026.8,M,35.7,M,,*69
$GPGSA,A,3,01,32,11,20,31,23,14,19,17,,,,1.51,0.92,1.20*05
$GPGSV,3,1,12,01,78,276,47,11,59,198,46,13,01,223,,14,18,046,29*7D
$GPGSV,3,2,12,17,15,314,27,19,13,194,26,20,46,297,31,23,30,228,44*7C
$GPGSV,3,3,12,31,39,092,43,32,71,000,38,33,23,240,34,39,43,191,40*72
$GPGLL,3946.88091,N,03249.29705,E,134008.00,A,A*62
$GPRMC,134009.00,A,3946.88161,N,03249.29704,E,2.382,0.76,011213,,,A*61
$GPVTG,0.76,T,,M,2.382,N,4.411,K,A*37
$GPGGA,134009.00,3946.88161,N,03249.29704,E,1,09,0.92,1026.5,M,35.7,M,,*6A
$GPGSA,A,3,01,32,11,20,31,23,14,19,17,,,,1.51,0.92,1.20*05
$GPGSV,3,1,12,01,78,276,46,11,59,198,45,13,01,223,,14,18,046,29*7F
$GPGSV,3,2,12,17,15,314,26,19,13,194,32,20,46,297,35,23,30,228,42*7A
$GPGSV,3,3,12,31,39,092,42,32,71,000,38,33,23,240,37,39,43,191,39*7E
$GPGLL,3946.88161,N,03249.29704,E,134009.00,A,A*6C
$GPRMC,134010.00,A,3946.88220,N,03249.29715,E,2.127,0.78,011213,,,A*6C
$GPVTG,0.78,T,,M,2.127,N,3.939,K,A*34
$GPGGA,134010.00,3946.88220,N,03249.29715,E,1,09,0.92,1026.9,M,35.7,M,,*68
$GPGSA,A,3,01,32,11,20,31,23,14,19,17,,,,1.51,0.92,1.20*05
$GPGSV,3,1,12,01,78,276,46,11,59,198,47,13,01,223,,14,18,046,32*77
$GPGSV,3,2,12,17,15,314,26,19,13,194,27,20,46,297,39,23,30,228,43*73
$GPGSV,3,3,12,31,39,092,39,32,71,000,34,33,23,240,38,39,43,191,41*7E
$GPGLL,3946.88220,N,03249.29715,E,134010.00,A,A*62
$GPRMC,134011.00,A,3946.88286,N,03249.29708,E,2.511,354.98,011213,,,A*60
$GPVTG,354.98,T,,M,2.511,N,4.651,K,A*3F
$GPGGA,134011.00,3946.88286,N,03249.29708,E,1,09,0.92,1026.8,M,35.7,M,,*68

$GPGSA,A,3,01,32,11,20,31,23,14,19,17,,,,1.51,0.92,1.20*05
$GPGSV,3,1,12,01,78,276,47,11,59,198,45,13,01,223,,14,18,046,35*73
$GPGSV,3,2,12,17,15,314,32,19,13,194,27,20,46,297,40,23,30,228,44*7F
$GPGSV,3,3,12,31,39,092,40,32,71,000,39,33,23,240,34,39,43,191,34*73
$GPGLL,3946.88286,N,03249.29708,E,134011.00,A,A*63
$GPRMC,134012.00,A,3946.88354,N,03249.29706,E,2.354,354.78,011213,,,A*6A
$GPVTG,354.78,T,,M,2.354,N,4.359,K,A*3B
$GPGGA,134012.00,3946.88354,N,03249.29706,E,1,09,0.92,1027.2,M,35.7,M,,*60
$GPGSA,A,3,01,32,11,20,31,23,14,19,17,,,,1.51,0.92,1.20*05
$GPGSV,4,1,13,01,78,276,47,11,59,198,44,13,01,223,,14,18,046,31*70
$GPGSV,4,2,13,17,15,314,26,19,13,194,32,20,46,297,38,23,30,228,42*71
$GPGSV,4,3,13,24,,,25,31,39,092,39,32,71,000,38,33,23,240,34*48
$GPGSV,4,4,13,39,43,191,35*49
$GPGLL,3946.88354,N,03249.29706,E,134012.00,A,A*60
$GPRMC,134013.00,A,3946.88423,N,03249.29703,E,2.536,356.12,011213,,,A*65
$GPVTG,356.12,T,,M,2.536,N,4.696,K,A*31
$GPGGA,134013.00,3946.88423,N,03249.29703,E,1,09,0.92,1027.3,M,35.7,M,,*62
$GPGSA,A,3,01,32,11,20,31,23,14,19,17,,,,1.51,0.92,1.20*05
$GPGSV,3,1,12,01,78,276,47,11,59,198,45,13,01,223,,14,18,046,32*74
$GPGSV,3,2,12,17,15,314,27,19,13,194,26,20,46,297,38,23,30,228,36*70
$GPGSV,3,3,12,31,39,092,45,32,71,000,39,33,23,240,34,39,43,191,37*75
$GPGLL,3946.88423,N,03249.29703,E,134013.00,A,A*63
$GPRMC,134014.00,A,3946.88492,N,03249.29703,E,2.403,356.14,011213,,,A*69
$GPVTG,356.14,T,,M,2.403,N,4.450,K,A*38
$GPGGA,134014.00,3946.88492,N,03249.29703,E,1,09,0.92,1027.5,M,35.7,M,,*69
$GPGSA,A,3,01,32,11,20,31,23,14,19,17,,,,1.51,0.92,1.20*05
$GPGSV,3,1,12,01,78,276,46,11,59,198,44,13,01,223,,14,18,046,29*7E
$GPGSV,3,2,12,17,15,314,28,19,13,194,26,20,46,297,38,23,30,228,39*70
$GPGSV,3,3,12,31,39,092,44,32,71,000,40,33,23,240,37,39,43,191,35*7B

$GPGLL,3946.88492,N,03249.29703,E,134014.00,A,A*6E
$GPRMC,134015.00,A,3946.88561,N,03249.29696,E,2.451,355.31,011213,,,A*6B
$GPVTG,355.31,T,,M,2.451,N,4.539,K,A*35
$GPGGA,134015.00,3946.88561,N,03249.29696,E,1,09,0.92,1027.4,M,35.7,M,,*69
$GPGSA,A,3,01,32,11,20,31,23,14,19,17,,,,1.51,0.92,1.20*05
$GPGSV,3,1,12,01,78,276,46,11,59,198,44,13,01,223,,14,18,046,30*76
$GPGSV,3,2,12,17,15,314,28,19,13,194,26,20,46,297,38,23,30,228,40*7E
$GPGSV,3,3,12,31,39,092,39,32,71,000,37,33,23,240,35,39,43,191,35*73
$GPGLL,3946.88561,N,03249.29696,E,134015.00,A,A*6F
$GPRMC,134016.00,A,3946.88631,N,03249.29694,E,2.487,357.35,011213,,,A*61
$GPVTG,357.35,T,,M,2.487,N,4.605,K,A*34
$GPGGA,134016.00,3946.88631,N,03249.29694,E,1,09,0.92,1027.5,M,35.7,M,,*6F
$GPGSA,A,3,01,32,11,20,31,23,14,19,17,,,,1.51,0.92,1.20*05
$GPGSV,3,1,12,01,78,276,46,11,59,198,44,13,01,223,,14,18,046,33*75
$GPGSV,3,2,12,17,15,314,26,19,13,194,26,20,46,297,31,23,30,228,41*78
$GPGSV,3,3,12,31,40,091,41,32,71,000,39,33,23,240,35,39,43,191,36*7C
$GPGLL,3946.88631,N,03249.29694,E,134016.00,A,A*68
$GPRMC,134017.00,A,3946.88706,N,03249.29696,E,2.709,358.63,011213,,,A*6E
$GPVTG,358.63,T,,M,2.709,N,5.017,K,A*39
$GPGGA,134017.00,3946.88706,N,03249.29696,E,1,09,0.92,1027.4,M,35.7,M,,*68
$GPGSA,A,3,01,32,11,20,31,23,14,19,17,,,,1.51,0.92,1.20*05
$GPGSV,3,1,12,01,78,276,45,11,59,198,44,13,01,223,,14,18,046,33*76
$GPGSV,3,2,12,17,15,314,31,19,13,194,31,20,46,297,36,23,30,228,38*71
$GPGSV,3,3,12,31,40,091,38,32,71,002,42,33,23,240,32,39,43,191,34*79
$GPGLL,3946.88706,N,03249.29696,E,134017.00,A,A*6E

$GPRMC,134018.00,A,3946.88778,N,03249.29694,E,2.547,356.91,011213,,,A*61
$GPVTG,356.91,T,,M,2.547,N,4.716,K,A*35
$GPGGA,134018.00,3946.88778,N,03249.29694,E,1,09,0.92,1027.3,M,35.7,M,,*6B
$GPGSA,A,3,01,32,11,20,31,23,14,19,17,,,,1.51,0.92,1.20*05
$GPGSV,3,1,12,01,78,276,47,11,59,198,45,13,01,223,,14,18,046,32*74
$GPGSV,3,2,12,17,15,314,32,19,13,194,26,20,46,297,41,23,30,228,40*7B
$GPGSV,3,3,12,31,40,091,41,32,71,002,39,33,23,240,35,39,43,191,36*7E
$GPGLL,3946.88778,N,03249.29694,E,134018.00,A,A*6A
$GPRMC,134019.00,A,3946.88848,N,03249.29683,E,2.601,352.43,011213,,,A*60
$GPVTG,352.43,T,,M,2.601,N,4.816,K,A*30
$GPGGA,134019.00,3946.88848,N,03249.29683,E,1,09,0.92,1027.4,M,35.7,M,,*67
$GPGSA,A,3,01,32,11,20,31,23,14,19,17,,,,1.51,0.92,1.20*05
$GPGSV,3,1,12,01,78,276,47,11,59,198,47,13,01,223,,14,18,046,33*77
$GPGSV,3,2,12,17,15,314,31,19,13,194,24,20,46,297,41,23,30,228,44*7E
$GPGSV,3,3,12,31,40,091,44,32,71,002,41,33,23,240,27,39,43,191,40*76
$GPGLL,3946.88848,N,03249.29683,E,134019.00,A,A*61
$GPRMC,134020.00,A,3946.88918,N,03249.29672,E,2.503,352.33,011213,,,A*66
$GPVTG,352.33,T,,M,2.503,N,4.636,K,A*3A
$GPGGA,134020.00,3946.88918,N,03249.29672,E,1,09,0.92,1027.3,M,35.7,M,,*60
$GPGSA,A,3,01,32,11,20,31,23,14,19,17,,,,1.51,0.92,1.20*05
$GPGSV,3,1,12,01,78,276,44,11,59,198,45,13,01,223,,14,18,046,28*7C
$GPGSV,3,2,12,17,15,314,26,19,13,194,25,20,46,297,38,23,30,228,45*76
$GPGSV,3,3,12,31,40,091,39,32,71,002,40,33,23,240,32,39,43,191,42*7B
$GPGLL,3946.88918,N,03249.29672,E,134020.00,A,A*61
$GPRMC,134021.00,A,3946.88966,N,03249.29676,E,1.790,358.39,011213,,,A*61
$GPVTG,358.39,T,,M,1.790,N,3.314,K,A*33
$GPGGA,134021.00,3946.88966,N,03249.29676,E,1,08,1.11,1028.3,M,35.7,M,,*68
$GPGSA,A,3,01,32,11,20,31,23,14,17,,,,,1.88,1.11,1.51*05
$GPGSV,3,1,12,01,78,276,47,11,59,198,45,13,01,223,,14,18,046,36*70
$GPGSV,3,2,12,17,15,314,32,19,13,194,,20,46,297,36,23,30,228,37*7F
$GPGSV,3,3,12,31,40,091,46,32,71,002,41,33,23,240,35,39,43,191,38*78
$GPGLL,3946.88966,N,03249.29676,E,134021.00,A,A*6D
$GPRMC,134022.00,A,3946.89030,N,03249.29673,E,2.334,356.23,011213,,,A*60
$GPVTG,356.23,T,,M,2.334,N,4.322,K,A*3D

$GPGGA,134022.00,3946.89030,N,03249.29673,E,1,09,0.92,1028.5,M,35.7,M,,*68
$GPGSA,A,3,01,32,11,20,31,23,14,19,17,,,,1.51,0.92,1.20*05
$GPGSV,3,1,12,01,78,276,47,11,59,198,45,13,01,223,,14,18,046,29*7E
$GPGSV,3,2,12,17,15,314,36,19,13,194,29,20,46,297,35,23,30,228,36*72
$GPGSV,3,3,12,31,40,091,42,32,71,002,38,33,23,240,34,39,43,191,36*7D
$GPGLL,3946.89030,N,03249.29673,E,134022.00,A,A*60
$GPRMC,134023.00,A,3946.89105,N,03249.29658,E,2.647,353.77,011213,,,A*6A
$GPVTG,353.77,T,,M,2.647,N,4.902,K,A*30
$GPGGA,134023.00,3946.89105,N,03249.29658,E,1,09,0.92,1028.3,M,35.7,M,,*61
$GPGSA,A,3,01,32,11,20,31,23,14,19,17,,,,1.51,0.92,1.20*05
$GPGSV,4,1,13,01,78,276,47,11,59,198,46,13,01,223,,14,18,046,28*7A
$GPGSV,4,2,13,17,15,314,35,19,13,194,32,20,46,297,37,23,30,228,43*7D
$GPGSV,4,3,13,30,,,25,31,40,091,40,32,71,002,39,33,23,240,34*4D
$GPGSV,4,4,13,39,43,191,38*44
$GPGLL,3946.89105,N,03249.29658,E,134023.00,A,A*6F
$GPRMC,134024.00,A,3946.89178,N,03249.29642,E,2.569,351.76,011213,,,A*60
$GPVTG,351.76,T,,M,2.569,N,4.759,K,A*3C
$GPGGA,134024.00,3946.89178,N,03249.29642,E,1,09,0.92,1028.3,M,35.7,M,,*67
$GPGSA,A,3,01,32,11,20,31,23,14,19,17,,,,1.51,0.92,1.20*05
$GPGSV,3,1,12,01,78,276,47,11,59,198,46,13,01,223,,14,18,046,33*76
$GPGSV,3,2,12,17,15,314,35,19,13,194,27,20,46,297,39,23,30,228,43*71
$GPGSV,3,3,12,31,40,091,41,32,71,002,39,33,23,240,37,39,43,191,39*73
$GPGLL,3946.89178,N,03249.29642,E,134024.00,A,A*69
$GPRMC,134025.00,A,3946.89252,N,03249.29622,E,2.645,349.60,011213,,,A*6F
$GPVTG,349.60,T,,M,2.645,N,4.899,K,A*3C
$GPGGA,134025.00,3946.89252,N,03249.29622,E,1,09,0.92,1028.2,M,35.7,M,,*6A
$GPGSA,A,3,01,32,11,20,31,23,14,19,17,,,,1.51,0.92,1.20*05
$GPGSV,4,1,13,01,78,276,46,11,59,198,47,13,01,223,,14,18,046,35*76
$GPGSV,4,2,13,17,15,314,35,19,13,194,27,20,46,297,40,23,30,228,44*7E
$GPGSV,4,3,13,30,,,26,31,40,091,40,32,71,002,42,33,23,240,40*41
$GPGSV,4,4,13,39,43,191,38*44
$GPGLL,3946.89252,N,03249.29622,E,134025.00,A,A*65
$GPRMC,134026.00,A,3946.89330,N,03249.29599,E,2.839,347.18,011213,,,A*6E
$GPVTG,347.18,T,,M,2.839,N,5.258,K,A*3E
$GPGGA,134026.00,3946.89330,N,03249.29599,E,1,09,0.92,1028.0,M,35.7,M,,*6D
$GPGSA,A,3,01,32,11,20,31,23,14,19,17,,,,1.51,0.92,1.20*05
$GPGSV,3,1,12,01,78,276,47,11,59,198,45,13,01,223,,14,18,046,29*7E
$GPGSV,3,2,12,17,15,314,37,19,13,194,31,20,46,297,37,23,30,228,44*7D
$GPGSV,3,3,12,31,40,091,43,32,71,002,39,33,23,240,40,39,43,191,38*70
$GPGLL,3946.89330,N,03249.29599,E,134026.00,A,A*60
$GPRMC,134027.00,A,3946.89408,N,03249.29588,E,2.757,351.33,011213,,,A*6A
$GPVTG,351.33,T,,M,2.757,N,5.106,K,A*3F
$GPGGA,134027.00,3946.89408,N,03249.29588,E,1,09,0.92,1028.0,M,35.7,M,,*60
$GPGSA,A,3,01,32,11,20,31,23,14,19,17,,,,1.51,0.92,1.20*05
$GPGSV,3,1,12,01,78,276,48,11,59,198,45,13,01,223,,14,18,046,28*70
$GPGSV,3,2,12,17,15,314,37,19,13,194,37,20,46,297,39,23,30,228,36*70
$GPGSV,3,3,12,31,40,091,43,32,71,002,42,33,23,240,39,39,43,191,35*7F
$GPGLL,3946.89408,N,03249.29588,E,134027.00,A,A*6D
$GPRMC,134028.00,A,3946.89491,N,03249.29575,E,2.792,353.38,011213,,,A*67
$GPVTG,353.38,T,,M,2.792,N,5.171,K,A*3F
$GPGGA,134028.00,3946.89491,N,03249.29575,E,1,09,0.92,1027.7,M,35.7,M,,*65
$GPGSA,A,3,01,32,11,20,31,23,14,19,17,,,,1.51,0.92,1.20*05
$GPGSV,3,1,12,01,78,276,49,11,59,198,46,13,01,223,,14,18,046,35*7E
$GPGSV,3,2,12,17,15,314,38,19,13,194,37,20,46,297,41,23,30,228,40*71
$GPGSV,3,3,12,31,40,091,44,32,71,002,43,33,23,240,36,39,43,191,37*74
$GPGLL,3946.89491,N,03249.29575,E,134028.00,A,A*60
$GPRMC,134029.00,A,3946.89569,N,03249.29562,E,2.788,352.97,011213,,,A*69
$GPVTG,352.97,T,,M,2.788,N,5.164,K,A*34
$GPGGA,134029.00,3946.89569,N,03249.29562,E,1,09,0.92,1027.7,M,35.7,M,,*64
$GPGSA,A,3,01,32,11,20,31,23,14,19,17,,,,1.51,0.92,1.20*05
$GPGSV,3,1,12,01,78,276,48,11,59,198,43,13,01,223,,14,18,046,27*79
$GPGSV,3,2,12,17,15,314,37,19,13,194,35,20,46,297,41,23,30,228,36*7D
$GPGSV,3,3,12,31,40,091,38,32,71,002,40,33,23,240,33,39,43,191,34*7A
$GPGLL,3946.89569,N,03249.29562,E,134029.00,A,A*61
$GPRMC,134030.00,A,3946.89650,N,03249.29548,E,2.842,353.02,011213,,,A*64
$GPVTG,353.02,T,,M,2.842,N,5.263,K,A*34
$GPGGA,134030.00,3946.89650,N,03249.29548,E,1,09,0.92,1027.6,M,35.7,M,,*6C
$GPGSA,A,3,01,32,11,20,31,23,14,19,17,,,,1.51,0.92,1.20*05
$GPGSV,3,1,12,01,78,276,48,11,59,198,45,13,01,223,,14,18,046,26*7E
$GPGSV,3,2,12,17,15,314,34,19,13,194,27,20,46,297,41,23,30,228,39*72
$GPGSV,3,3,12,31,40,091,39,32,71,002,41,33,23,240,32,39,43,191,35*7A
$GPGLL,3946.89650,N,03249.29548,E,134030.00,A,A*68
$GPRMC,134031.00,A,3946.89726,N,03249.29534,E,2.677,352.08,011213,,,A*6D
$GPVTG,352.08,T,,M,2.677,N,4.957,K,A*3A
$GPGGA,134031.00,3946.89726,N,03249.29534,E,1,09,0.92,1027.5,M,35.7,M,,*65
$GPGSA,A,3,01,32,11,20,31,23,14,19,17,,,,1.51,0.92,1.20*05
$GPGSV,3,1,12,01,78,276,48,11,59,198,44,13,01,223,,14,18,046,31*79
$GPGSV,3,2,12,17,15,314,37,19,13,194,27,20,46,297,41,23,30,228,40*7F
$GPGSV,3,3,12,31,40,091,38,32,71,002,42,33,23,240,,39,43,191,36*7A
$GPGLL,3946.89726,N,03249.29534,E,134031.00,A,A*62
$GPRMC,134032.00,A,3946.89796,N,03249.29530,E,2.553,355.67,011213,,,A*6A
$GPVTG,355.67,T,,M,2.553,N,4.729,K,A*36
$GPGGA,134032.00,3946.89796,N,03249.29530,E,1,09,0.92,1027.5,M,35.7,M,,*69
$GPGSA,A,3,01,32,11,20,31,23,14,19,17,,,,1.51,0.92,1.20*05
$GPGSV,3,1,12,01,78,276,48,11,59,198,45,13,01,223,,14,18,046,37*7E
$GPGSV,3,2,12,17,15,314,30,19,13,194,28,20,46,297,41,23,30,228,40*77
$GPGSV,3,3,12,31,40,091,36,32,71,002,41,33,23,240,,39,43,191,35*74
$GPGLL,3946.89796,N,03249.29530,E,134032.00,A,A*6E
$GPRMC,134033.00,A,3946.89866,N,03249.29524,E,2.514,355.45,011213,,,A*6D
$GPVTG,355.45,T,,M,2.514,N,4.656,K,A*3C
$GPGGA,134033.00,3946.89866,N,03249.29524,E,1,09,0.92,1027.5,M,35.7,M,,*6D
$GPGSA,A,3,01,32,11,20,31,23,14,19,17,,,,1.51,0.92,1.20*05
$GPGSV,3,1,12,01,78,276,48,11,59,198,45,13,01,223,,14,18,046,34*7D
$GPGSV,3,2,12,17,15,314,39,19,13,194,26,20,46,297,41,23,30,228,38*7F
$GPGSV,3,3,12,31,40,091,39,32,71,002,43,33,23,240,,39,43,191,36*7A
$GPGLL,3946.89866,N,03249.29524,E,134033.00,A,A*6A
$GPRMC,134034.00,A,3946.89939,N,03249.29509,E,2.612,352.42,011213,,,A*6B
$GPVTG,352.42,T,,M,2.612,N,4.837,K,A*30
$GPGGA,134034.00,3946.89939,N,03249.29509,E,1,09,0.92,1027.4,M,35.7,M,,*6F
$GPGSA,A,3,01,32,11,20,31,23,14,19,17,,,,1.51,0.92,1.20*05
$GPGSV,3,1,12,01,78,276,47,11,59,198,48,13,01,223,,14,18,046,33*78
$GPGSV,3,2,12,17,15,314,36,19,13,194,31,20,46,297,40,23,30,228,38*77
$GPGSV,3,3,12,31,40,091,43,32,71,002,44,33,23,240,,39,43,191,36*70
$GPGLL,3946.89939,N,03249.29509,E,134034.00,A,A*69
$GPRMC,134035.00,A,3946.90012,N,03249.29488,E,2.573,350.32,011213,,,A*6B
$GPVTG,350.32,T,,M,2.573,N,4.765,K,A*39
$GPGGA,134035.00,3946.90012,N,03249.29488,E,1,09,0.92,1027.2,M,35.7,M,,*68
$GPGSA,A,3,01,32,11,20,31,23,14,19,17,,,,1.51,0.92,1.20*05
$GPGSV,3,1,12,01,78,276,47,11,59,198,45,13,01,223,,14,18,046,29*7E
$GPGSV,3,2,12,17,15,314,34,19,13,194,37,20,46,297,41,23,30,228,33*79
$GPGSV,3,3,12,31,40,091,40,32,71,002,42,33,23,240,,39,43,191,32*71
$GPGLL,3946.90012,N,03249.29488,E,134035.00,A,A*68
$GPRMC,134036.00,A,3946.90085,N,03249.29470,E,2.704,350.56,011213,,,A*61
$GPVTG,350.56,T,,M,2.704,N,5.007,K,A*3B
$GPGGA,134036.00,3946.90085,N,03249.29470,E,1,09,0.92,1027.0,M,35.7,M,,*60
$GPGSA,A,3,01,32,11,20,31,23,14,19,17,,,,1.51,0.92,1.20*05
$GPGSV,3,1,12,01,78,276,46,11,59,198,46,13,01,223,,14,18,046,30*74
$GPGSV,3,2,12,17,15,314,38,19,13,194,35,20,46,297,35,23,30,228,36*71
$GPGSV,3,3,12,31,40,091,41,32,71,002,43,33,23,240,,39,43,191,34*77
$GPGLL,3946.90085,N,03249.29470,E,134036.00,A,A*62
$GPRMC,134037.00,A,3946.90158,N,03249.29450,E,2.638,348.91,011213,,,A*6F
$GPVTG,348.91,T,,M,2.638,N,4.886,K,A*37
$GPGGA,134037.00,3946.90158,N,03249.29450,E,1,09,0.92,1026.8,M,35.7,M,,*6B
$GPGSA,A,3,01,32,11,20,31,23,14,19,17,,,,1.51,0.92,1.20*05
$GPGSV,3,1,12,01,78,276,46,11,59,198,45,13,01,223,,14,18,046,31*76
$GPGSV,3,2,12,17,15,314,33,19,13,194,35,20,46,297,36,23,30,228,36*79
$GPGSV,3,3,12,31,40,091,41,32,71,002,42,33,23,240,,39,43,191,35*77
$GPGLL,3946.90158,N,03249.29450,E,134037.00,A,A*60
$GPRMC,134038.00,A,3946.90228,N,03249.29433,E,2.513,349.30,011213,,,A*61
$GPVTG,349.30,T,,M,2.513,N,4.653,K,A*31
$GPGGA,134038.00,3946.90228,N,03249.29433,E,1,09,0.92,1026.8,M,35.7,M,,*65
$GPGSA,A,3,01,32,11,20,31,23,14,19,17,,,,1.51,0.92,1.20*05
$GPGSV,3,1,12,01,78,276,47,11,59,198,45,13,01,223,,14,18,046,27*70
$GPGSV,3,2,12,17,15,314,34,19,13,194,32,20,46,297,36,23,30,228,41*79
$GPGSV,3,3,12,31,40,091,43,32,71,002,41,33,23,240,,39,43,191,37*74
$GPGLL,3946.90228,N,03249.29433,E,134038.00,A,A*6E
$GPRMC,134039.00,A,3946.90301,N,03249.29413,E,2.659,348.69,011213,,,A*68
$GPVTG,348.69,T,,M,2.659,N,4.925,K,A*3F
$GPGGA,134039.00,3946.90301,N,03249.29413,E,1,09,0.92,1026.7,M,35.7,M,,*63
$GPGSA,A,3,01,32,11,20,31,23,14,19,17,,,,1.51,0.92,1.20*05
$GPGSV,3,1,12,01,78,276,46,11,59,198,46,13,01,223,,14,18,046,28*7D
$GPGSV,3,2,12,17,15,314,34,19,13,194,35,20,46,297,36,23,30,228,40*7F
$GPGSV,3,3,12,31,40,091,42,32,71,002,42,33,23,240,,39,43,191,38*79
$GPGLL,3946.90301,N,03249.29413,E,134039.00,A,A*67
$GPRMC,134040.00,A,3946.90372,N,03249.29393,E,2.596,348.33,011213,,,A*62
$GPVTG,348.33,T,,M,2.596,N,4.808,K,A*3E
$GPGGA,134040.00,3946.90372,N,03249.29393,E,1,09,0.92,1026.8,M,35.7,M,,*69
$GPGSA,A,3,01,32,11,20,31,23,14,19,17,,,,1.51,0.92,1.20*05
$GPGSV,3,1,12,01,78,276,47,11,59,198,45,13,01,223,,14,18,046,29*7E
$GPGSV,3,2,12,17,15,314,34,19,13,194,36,20,46,297,35,23,30,228,37*7F
$GPGSV,3,3,12,31,40,091,40,32,71,002,43,33,23,240,,39,43,191,38*7A
$GPGLL,3946.90372,N,03249.29393,E,134040.00,A,A*62
$GPRMC,134041.00,A,3946.90446,N,03249.29373,E,2.661,348.90,011213,,,D*6A
$GPVTG,348.90,T,,M,2.661,N,4.928,K,D*3A
$GPGGA,134041.00,3946.90446,N,03249.29373,E,2,09,0.92,1026.6,M,35.7,M,,0000*6B
$GPGSA,A,3,01,32,11,20,31,23,14,19,17,,,,1.51,0.92,1.20*05
$GPGSV,3,1,12,01,78,276,48,11,59,198,46,13,01,223,,14,18,046,29*72
$GPGSV,3,2,12,17,15,314,32,19,13,194,36,20,46,297,37,23,30,228,39*75
$GPGSV,3,3,12,31,40,091,40,32,71,002,43,33,23,240,,39,43,191,36*74
$GPGLL,3946.90446,N,03249.29373,E,134041.00,A,D*68
$GPRMC,134042.00,A,3946.90516,N,03249.29355,E,2.580,347.82,011213,,,D*69
$GPVTG,347.82,T,,M,2.580,N,4.779,K,D*30
$GPGGA,134042.00,3946.90516,N,03249.29355,E,2,09,0.92,1026.6,M,35.7,M,,0000*68
$GPGSA,A,3,01,32,11,20,31,23,14,19,17,,,,1.51,0.92,1.20*05
$GPGSV,3,1,12,01,78,276,48,11,59,198,46,13,01,223,,14,18,046,29*72
$GPGSV,3,2,12,17,15,314,35,19,13,194,36,20,46,297,40,23,30,228,37*7C
$GPGSV,3,3,12,31,40,091,38,32,71,002,42,33,23,240,,39,43,191,38*74
$GPGLL,3946.90516,N,03249.29355,E,134042.00,A,D*6B
$GPRMC,134043.00,A,3946.90594,N,03249.29336,E,2.847,347.86,011213,,,D*65
$GPVTG,347.86,T,,M,2.847,N,5.273,K,D*3C
$GPGGA,134043.00,3946.90594,N,03249.29336,E,2,09,0.92,1026.7,M,35.7,M,,0000*67
$GPGSA,A,3,01,32,11,20,31,23,14,19,17,,,,1.51,0.92,1.20*05
$GPGSV,3,1,12,01,78,276,48,11,59,198,46,13,01,223,,14,18,046,30*7A
$GPGSV,3,2,12,17,15,314,37,19,13,194,34,20,46,297,41,23,30,228,40*7D
$GPGSV,3,3,12,31,40,091,39,32,71,002,42,33,23,240,,39,43,191,38*75
$GPGLL,3946.90594,N,03249.29336,E,134043.00,A,D*65
$GPRMC,134044.00,A,3946.90670,N,03249.29325,E,2.605,351.73,011213,,,D*6C
$GPVTG,351.73,T,,M,2.605,N,4.824,K,D*30
$GPGGA,134044.00,3946.90670,N,03249.29325,E,2,09,0.92,1026.6,M,35.7,M,,0000*6A
$GPGSA,A,3,01,32,11,20,31,23,14,19,17,,,,1.51,0.92,1.20*05
$GPGSV,3,1,12,01,78,276,47,11,59,198,45,13,01,223,,14,18,046,24*73
$GPGSV,3,2,12,17,15,314,36,19,13,194,36,20,46,297,39,23,30,228,41*70
$GPGSV,3,3,12,31,40,091,38,32,71,002,41,33,23,240,,39,43,191,35*7A
$GPGLL,3946.90670,N,03249.29325,E,134044.00,A,D*69
$GPRMC,134045.00,A,3946.90745,N,03249.29314,E,2.618,352.22,011213,,,D*63
$GPVTG,352.22,T,,M,2.618,N,4.848,K,D*31
$GPGGA,134045.00,3946.90745,N,03249.29314,E,2,09,0.92,1026.5,M,35.7,M,,0000*6D
$GPGSA,A,3,01,32,11,20,31,23,14,19,17,,,,1.51,0.92,1.20*05
$GPGSV,3,1,12,01,78,276,47,11,59,198,46,13,01,223,,14,18,046,34*71
$GPGSV,3,2,12,17,15,314,34,19,13,194,30,20,46,297,39,23,30,228,40*75
$GPGSV,3,3,12,31,40,091,41,32,71,002,43,33,23,240,,39,43,191,37*74
$GPGLL,3946.90745,N,03249.29314,E,134045.00,A,D*6D
$GPRMC,134046.00,A,3946.90818,N,03249.29306,E,2.597,354.92,011213,,,D*6D
$GPVTG,354.92,T,,M,2.597,N,4.809,K,D*3D
$GPGGA,134046.00,3946.90818,N,03249.29306,E,2,09,0.92,1026.5,M,35.7,M,,0000*6A
$GPGSA,A,3,01,32,11,20,31,23,14,19,17,,,,1.51,0.92,1.20*05
$GPGSV,3,1,12,01,78,276,47,11,59,198,45,13,01,223,,14,18,046,34*72
$GPGSV,3,2,12,17,15,314,33,19,13,194,30,20,46,297,41,23,30,228,41*7C
$GPGSV,3,3,12,31,40,091,38,32,71,002,41,33,23,240,,39,43,191,37*78
$GPGLL,3946.90818,N,03249.29306,E,134046.00,A,D*6A
$GPRMC,134047.00,A,3946.90897,N,03249.29296,E,2.727,355.08,011213,,,D*68
$GPVTG,355.08,T,,M,2.727,N,5.051,K,D*32
$GPGGA,134047.00,3946.90897,N,03249.29296,E,2,09,0.92,1026.2,M,35.7,M,,0000*63
$GPGSA,A,3,01,32,11,20,31,23,14,19,17,,,,1.51,0.92,1.20*05
$GPGSV,3,1,12,01,78,276,46,11,59,198,46,13,01,223,,14,18,046,33*77
$GPGSV,3,2,12,17,15,314,34,19,13,194,31,20,46,297,38,23,30,228,44*71
$GPGSV,3,3,12,31,40,091,42,32,71,002,40,33,23,240,37,39,43,191,40*70
$GPGLL,3946.90897,N,03249.29296,E,134047.00,A,D*64
$GPRMC,134048.00,A,3946.90975,N,03249.29288,E,2.635,356.44,011213,,,D*6C
$GPVTG,356.44,T,,M,2.635,N,4.880,K,D*3E
$GPGGA,134048.00,3946.90975,N,03249.29288,E,2,09,0.92,1026.1,M,35.7,M,,0000*6D
$GPGSA,A,3,01,32,11,20,31,23,14,19,17,,,,1.51,0.92,1.20*05
$GPGSV,3,1,12,01,78,276,45,11,59,198,47,13,01,223,,14,18,046,30*76
$GPGSV,3,2,12,17,15,314,28,19,13,194,34,20,46,297,40,23,30,228,39*7C
$GPGSV,3,3,12,31,40,091,44,32,71,002,42,33,23,240,38,39,43,191,39*75
$GPGLL,3946.90975,N,03249.29288,E,134048.00,A,D*69
$GPRMC,134049.00,A,3946.91048,N,03249.29277,E,2.577,355.07,011213,,,D*6A
$GPVTG,355.07,T,,M,2.577,N,4.772,K,D*3D
$GPGGA,134049.00,3946.91048,N,03249.29277,E,2,09,0.92,1026.0,M,35.7,M,,0000*6B
$GPGSA,A,3,01,32,11,20,31,23,14,19,17,,,,1.51,0.92,1.20*05
$GPGSV,3,1,12,01,78,276,44,11,59,198,45,13,01,223,,14,18,046,34*71
$GPGSV,3,2,12,17,15,314,29,19,13,194,34,20,46,297,42,23,30,228,39*7F
$GPGSV,3,3,12,31,40,091,40,32,71,002,40,33,23,240,36,39,43,191,37*73
$GPGLL,3946.91048,N,03249.29277,E,134049.00,A,D*6E
$GPRMC,134050.00,A,3946.91116,N,03249.29260,E,2.257,352.80,011213,,,D*63
$GPVTG,352.80,T,,M,2.257,N,4.179,K,D*3D
$GPGGA,134050.00,3946.91116,N,03249.29260,E,2,09,0.92,1025.9,M,35.7,M,,0000*65
$GPGSA,A,3,01,32,11,20,31,23,14,19,17,,,,1.51,0.92,1.20*05
$GPGSV,3,1,12,01,78,276,45,11,59,198,45,13,01,223,,14,18,046,31*75
$GPGSV,3,2,12,17,15,314,33,19,13,194,34,20,46,297,39,23,30,228,37*76
$GPGSV,3,3,12,31,40,091,39,32,71,002,42,33,23,240,34,39,43,191,37*7D
$GPGLL,3946.91116,N,03249.29260,E,134050.00,A,D*6A
$GPRMC,134051.00,A,3946.91184,N,03249.29248,E,2.432,354.40,011213,,,D*6C
$GPVTG,354.40,T,,M,2.432,N,4.505,K,D*3D
$GPGGA,134051.00,3946.91184,N,03249.29248,E,2,09,0.92,1025.8,M,35.7,M,,0000*64
$GPGSA,A,3,01,32,11,20,31,23,14,19,17,,,,1.51,0.92,1.20*05
$GPGSV,3,1,12,01,78,276,44,11,59,198,46,13,01,223,,14,18,046,31*77
$GPGSV,3,2,12,17,15,314,30,19,13,194,34,20,46,297,42,23,30,228,41*78
$GPGSV,3,3,12,31,40,091,38,32,71,002,40,33,23,240,37,39,43,191,37*7D
$GPGLL,3946.91184,N,03249.29248,E,134051.00,A,D*6A
$GPRMC,134052.00,A,3946.91253,N,03249.29233,E,2.532,350.83,011213,,,D*60
$GPVTG,350.83,T,,M,2.532,N,4.690,K,D*38
$GPGGA,134052.00,3946.91253,N,03249.29233,E,2,09,0.92,1025.7,M,35.7,M,,0000*6D
$GPGSA,A,3,01,32,11,20,31,23,14,19,17,,,,1.51,0.92,1.20*05
$GPGSV,3,1,12,01,78,276,45,11,59,198,47,13,01,223,,14,18,046,31*77
$GPGSV,3,2,12,17,15,314,28,19,13,194,34,20,46,297,37,23,30,228,43*71
$GPGSV,3,3,12,31,40,091,42,32,71,002,40,33,23,240,33,39,43,191,35*76
$GPGLL,3946.91253,N,03249.29233,E,134052.00,A,D*6C
$GPRMC,134053.00,A,3946.91332,N,03249.29195,E,3.014,344.42,011213,,,D*60
$GPVTG,344.42,T,,M,3.014,N,5.581,K,D*32
$GPGGA,134053.00,3946.91332,N,03249.29195,E,2,09,0.92,1025.6,M,35.7,M,,0000*64
$GPGSA,A,3,01,32,11,20,31,23,14,19,17,,,,1.51,0.92,1.20*05
$GPGSV,3,1,12,01,78,276,44,11,59,198,45,13,01,223,,14,18,046,28*7C
$GPGSV,3,2,12,17,15,314,35,19,13,194,33,20,46,297,42,23,30,228,38*74
$GPGSV,3,3,12,31,40,091,39,32,71,002,41,33,23,240,31,39,43,191,35*79
$GPGLL,3946.91332,N,03249.29195,E,134053.00,A,D*64
$GPRMC,134054.00,A,3946.91408,N,03249.29169,E,2.437,346.96,011213,,,D*65
$GPVTG,346.96,T,,M,2.437,N,4.513,K,D*37
$GPGGA,134054.00,3946.91408,N,03249.29169,E,2,09,0.92,1025.4,M,35.7,M,,0000*6C
$GPGSA,A,3,01,32,11,20,31,23,14,19,17,,,,1.51,0.92,1.20*05
$GPGSV,3,1,12,01,78,276,45,11,59,198,44,13,01,223,,14,18,046,33*76
$GPGSV,3,2,12,17,15,314,35,19,13,194,33,20,46,297,41,23,30,228,34*7B
$GPGSV,3,3,12,31,40,091,34,32,71,002,40,33,23,240,31,39,43,191,34*74
$GPGLL,3946.91408,N,03249.29169,E,134054.00,A,D*6E
$GPRMC,134055.00,A,3946.91479,N,03249.29159,E,2.583,352.40,011213,,,D*61
$GPVTG,352.40,T,,M,2.583,N,4.784,K,D*3B
$GPGGA,134055.00,3946.91479,N,03249.29159,E,2,09,0.92,1025.3,M,35.7,M,,0000*6F
$GPGSA,A,3,01,32,11,20,31,23,14,19,17,,,,1.51,0.92,1.20*05
$GPGSV,3,1,12,01,78,276,46,11,59,198,43,13,01,223,,14,18,046,29*79
$GPGSV,3,2,12,17,15,314,33,19,13,194,29,20,46,297,40,23,30,228,36*75
$GPGSV,3,3,12,31,40,091,37,32,71,002,37,33,23,240,33,39,43,191,34*75
$GPGLL,3946.91479,N,03249.29159,E,134055.00,A,D*6A
$GPRMC,134056.00,A,3946.91551,N,03249.29147,E,2.572,352.39,011213,,,D*66

$GPVTG,352.39,T,,M,2.572,N,4.763,K,D*32
$GPGGA,134056.00,3946.91551,N,03249.29147,E,2,09,0.92,1025.2,M,35.7,M,,0000*69
$GPGSA,A,3,01,32,11,20,31,23,14,19,17,,,,1.51,0.92,1.20*05
$GPGSV,3,1,12,01,78,276,46,11,59,198,44,13,01,223,,14,18,046,21*76
$GPGSV,3,2,12,17,15,314,34,19,13,194,32,20,46,297,39,23,30,228,35*75
$GPGSV,3,3,12,31,40,091,37,32,71,002,39,33,23,240,36,39,43,191,35*7F
$GPGLL,3946.91551,N,03249.29147,E,134056.00,A,D*6D
$GPRMC,134057.00,A,3946.91623,N,03249.29134,E,2.587,351.58,011213,,,D*6B
$GPVTG,351.58,T,,M,2.587,N,4.790,K,D*30
$GPGGA,134057.00,3946.91623,N,03249.29134,E,2,09,0.92,1025.2,M,35.7,M,,0000*6A
$GPGSA,A,3,01,32,11,20,31,23,14,19,17,,,,1.51,0.92,1.20*05
$GPGSV,3,1,12,01,78,274,45,11,59,198,44,13,01,223,,14,18,046,30*77
$GPGSV,3,2,12,17,15,314,35,19,13,194,33,20,46,297,39,23,30,228,37*77
$GPGSV,3,3,12,31,40,091,40,32,71,002,41,33,23,240,35,39,43,191,35*73
$GPGLL,3946.91623,N,03249.29134,E,134057.00,A,D*6E
$GPRMC,134058.00,A,3946.91698,N,03249.29116,E,2.684,349.92,011213,,,D*6B
$GPVTG,349.92,T,,M,2.684,N,4.971,K,D*3E
$GPGGA,134058.00,3946.91698,N,03249.29116,E,2,09,0.92,1025.2,M,35.7,M,,0000*65
$GPGSA,A,3,01,32,11,20,31,23,14,19,17,,,,1.51,0.92,1.20*05
$GPGSV,3,1,12,01,78,274,45,11,59,198,44,13,01,223,,14,18,046,30*77
$GPGSV,3,2,12,17,15,314,35,19,13,194,36,20,46,297,38,23,30,228,37*73
$GPGSV,3,3,12,31,40,091,40,32,71,002,40,33,23,240,35,39,43,191,35*72
$GPGLL,3946.91698,N,03249.29116,E,134058.00,A,D*61
$GPRMC,134059.00,A,3946.91772,N,03249.29100,E,2.571,350.44,011213,,,D*62
$GPVTG,350.44,T,,M,2.571,N,4.762,K,D*38
$GPGGA,134059.00,3946.91772,N,03249.29100,E,2,09,0.92,1025.2,M,35.7,M,,0000*66
$GPGSA,A,3,01,32,11,20,31,23,14,19,17,,,,1.51,0.92,1.20*05
$GPGSV,3,1,12,01,78,274,46,11,59,198,44,13,01,223,,14,18,046,34*70
$GPGSV,3,2,12,17,15,314,34,19,13,194,36,20,46,297,40,23,30,228,38*72
$GPGSV,3,3,12,31,40,091,38,32,71,002,40,33,23,240,32,39,43,191,34*7B
$GPGLL,3946.91772,N,03249.29100,E,134059.00,A,D*62
$GPRMC,134100.00,A,3946.91844,N,03249.29079,E,2.728,348.23,011213,,,D*6C
$GPVTG,348.23,T,,M,2.728,N,5.051,K,D*38
$GPGGA,134100.00,3946.91844,N,03249.29079,E,2,09,0.92,1025.1,M,35.7,M,,0000*6D
$GPGSA,A,3,01,32,11,20,31,23,14,19,17,,,,1.51,0.92,1.20*05
$GPGSV,3,1,12,01,78,274,45,11,59,198,44,13,01,223,,14,18,046,34*73
$GPGSV,3,2,12,17,15,314,34,19,13,194,34,20,46,297,38,23,30,228,42*72
$GPGSV,3,3,12,31,40,091,35,32,71,002,40,33,23,240,34,39,43,191,35*71
$GPGLL,3946.91844,N,03249.29079,E,134100.00,A,D*6A
$GPRMC,134101.00,A,3946.91913,N,03249.29055,E,2.467,346.80,011213,,,D*6F
$GPVTG,346.80,T,,M,2.467,N,4.569,K,D*38
$GPGGA,134101.00,3946.91913,N,03249.29055,E,2,09,0.92,1024.9,M,35.7,M,,0000*68
$GPGSA,A,3,01,32,11,20,31,23,14,19,17,,,,1.51,0.92,1.20*05
$GPGSV,3,1,12,01,78,274,47,11,59,198,43,13,01,223,,14,18,046,34*76
$GPGSV,3,2,12,17,15,314,36,19,13,194,30,20,46,297,39,23,30,228,39*79
$GPGSV,3,3,12,31,40,091,35,32,71,002,39,33,23,240,33,39,43,191,35*78
$GPGLL,3946.91913,N,03249.29055,E,134101.00,A,D*66
$GPRMC,134102.00,A,3946.91984,N,03249.29038,E,2.642,348.89,011213,,,D*6B
$GPVTG,348.89,T,,M,2.642,N,4.893,K,D*32
$GPGGA,134102.00,3946.91984,N,03249.29038,E,2,09,0.92,1024.8,M,35.7,M,,0000*6F
$GPGSA,A,3,01,32,11,20,31,23,14,19,17,,,,1.51,0.92,1.20*05
$GPGSV,3,1,12,01,78,274,46,11,59,198,43,13,01,223,,14,18,046,32*71
$GPGSV,3,2,12,17,15,314,36,19,13,194,29,20,46,297,40,23,30,228,37*71
$GPGSV,3,3,12,31,40,091,32,32,71,002,38,33,23,240,35,39,43,191,31*7C
$GPGLL,3946.91984,N,03249.29038,E,134102.00,A,D*60
$GPRMC,134103.00,A,3946.92058,N,03249.29022,E,2.588,350.95,011213,,,D*6B
$GPVTG,350.95,T,,M,2.588,N,4.793,K,D*3C
$GPGGA,134103.00,3946.92058,N,03249.29022,E,2,09,0.92,1024.7,M,35.7,M,,0000*61
$GPGSA,A,3,01,32,11,20,31,23,14,19,17,,,,1.51,0.92,1.19*0F
$GPGSV,3,1,12,01,78,274,47,11,59,198,43,13,01,223,,14,18,046,32*70
$GPGSV,3,2,12,17,15,314,34,19,13,194,28,20,46,297,40,23,30,228,35*70
$GPGSV,3,3,12,31,40,091,36,32,71,002,38,33,23,240,35,39,43,191,34*7D
$GPGLL,3946.92058,N,03249.29022,E,134103.00,A,D*61
$GPRMC,134104.00,A,3946.92134,N,03249.29006,E,2.779,350.25,011213,,,D*66
$GPVTG,350.25,T,,M,2.779,N,5.146,K,D*34
$GPGGA,134104.00,3946.92134,N,03249.29006,E,2,09,0.92,1024.7,M,35.7,M,,0000*6B
$GPGSA,A,3,01,32,11,20,31,23,14,19,17,,,,1.51,0.92,1.19*0F
$GPGSV,3,1,12,01,78,274,45,11,59,198,46,13,01,223,,14,18,046,28*7C
$GPGSV,3,2,12,17,15,314,34,19,13,194,26,20,46,297,37,23,30,228,41*7D
$GPGSV,3,3,12,31,40,091,41,32,71,002,40,33,23,240,35,39,43,191,37*71
$GPGLL,3946.92134,N,03249.29006,E,134104.00,A,D*6B
$GPRMC,134105.00,A,3946.92219,N,03249.28974,E,3.201,345.47,011213,,,D*6D
$GPVTG,345.47,T,,M,3.201,N,5.929,K,D*3E
$GPGGA,134105.00,3946.92219,N,03249.28974,E,2,09,0.92,1024.7,M,35.7,M,,0000*6B
$GPGSA,A,3,01,32,11,20,31,23,14,19,17,,,,1.51,0.92,1.19*0F
$GPGSV,3,1,12,01,78,274,43,11,59,198,44,13,01,223,,14,18,046,32*73
$GPGSV,3,2,12,17,15,314,32,19,13,194,26,20,46,297,39,23,30,228,45*71
$GPGSV,3,3,12,31,40,091,37,32,71,002,41,33,23,240,35,39,43,191,36*70
$GPGLL,3946.92219,N,03249.28974,E,134105.00,A,D*6B
$GPRMC,134106.00,A,3946.92299,N,03249.28946,E,2.783,346.28,011213,,,D*63
$GPVTG,346.28,T,,M,2.783,N,5.155,K,D*39
$GPGGA,134106.00,3946.92299,N,03249.28946,E,2,09,0.92,1024.6,M,35.7,M,,0000*60
$GPGSA,A,3,01,32,11,20,31,23,14,19,17,,,,1.51,0.92,1.19*0F
$GPGSV,3,1,12,01,78,274,44,11,59,198,45,13,01,223,,14,18,046,29*7F
$GPGSV,3,2,12,17,15,314,31,19,13,194,24,20,46,297,37,23,30,228,44*7F
$GPGSV,3,3,12,31,40,091,41,32,71,002,41,33,23,240,35,39,43,191,37*70
$GPGLL,3946.92299,N,03249.28946,E,134106.00,A,D*61
$GPRMC,134107.00,A,3946.92374,N,03249.28924,E,2.696,347.03,011213,,,D*69
$GPVTG,347.03,T,,M,2.696,N,4.993,K,D*37
$GPGGA,134107.00,3946.92374,N,03249.28924,E,2,09,0.92,1024.6,M,35.7,M,,0000*67
$GPGSA,A,3,01,32,11,20,31,23,14,19,17,,,,1.51,0.92,1.19*0F
$GPGSV,3,1,12,01,78,274,46,11,58,197,43,13,01,223,,14,18,046,32*7F
$GPGSV,3,2,12,17,15,314,31,19,13,194,22,20,46,297,40,23,30,228,38*72
$GPGSV,3,3,12,31,40,091,36,32,71,002,43,33,23,240,32,39,43,191,34*76
$GPGLL,3946.92374,N,03249.28924,E,134107.00,A,D*66
$GPRMC,134108.00,A,3946.92445,N,03249.28898,E,2.529,344.34,011213,,,D*65
$GPVTG,344.34,T,,M,2.529,N,4.684,K,D*3E
$GPGGA,134108.00,3946.92445,N,03249.28898,E,2,09,0.92,1024.5,M,35.7,M,,0000*68
$GPGSA,A,3,01,32,11,20,31,23,14,19,17,,,,1.51,0.92,1.19*0F
$GPGSV,3,1,12,01,78,274,46,11,58,197,43,13,01,223,,14,18,046,31*7C
$GPGSV,3,2,12,17,15,314,29,19,13,194,20,20,46,297,40,23,30,228,40*76
$GPGSV,3,3,12,31,40,091,36,32,71,002,41,33,23,240,33,39,43,191,32*73
$GPGLL,3946.92445,N,03249.28898,E,134108.00,A,D*6A
$GPRMC,134109.00,A,3946.92514,N,03249.28871,E,2.526,343.31,011213,,,D*6B
$GPVTG,343.31,T,,M,2.526,N,4.678,K,D*30
$GPGGA,134109.00,3946.92514,N,03249.28871,E,2,09,0.92,1024.4,M,35.7,M,,0000*6A
$GPGSA,A,3,01,32,11,20,31,23,14,19,17,,,,1.51,0.92,1.19*0F
$GPGSV,3,1,12,01,78,274,45,11,58,197,45,13,01,223,,14,18,046,32*7A
$GPGSV,3,2,12,17,15,314,29,19,13,194,20,20,46,297,40,23,30,228,38*79
$GPGSV,3,3,12,31,40,091,40,32,71,002,41,33,23,240,36,39,43,191,38*7D
$GPGLL,3946.92514,N,03249.28871,E,134109.00,A,D*69
$GPRMC,134110.00,A,3946.92582,N,03249.28844,E,2.494,342.69,011213,,,D*6E
$GPVTG,342.69,T,,M,2.494,N,4.619,K,D*33
$GPGGA,134110.00,3946.92582,N,03249.28844,E,2,09,0.92,1024.2,M,35.7,M,,0000*6D
$GPGSA,A,3,01,32,11,20,31,23,14,19,17,,,,1.51,0.92,1.19*0F
$GPGSV,3,1,12,01,78,274,45,11,58,197,42,13,01,223,,14,17,046,27*76
$GPGSV,3,2,12,17,15,314,33,19,13,194,19,20,46,297,40,23,30,228,33*73
$GPGSV,3,3,12,31,40,091,37,32,71,002,36,33,23,240,33,39,43,191,36*76
$GPGLL,3946.92582,N,03249.28844,E,134110.00,A,D*68
$GPRMC,134111.00,A,3946.92648,N,03249.28818,E,2.533,342.15,011213,,,D*64
$GPVTG,342.15,T,,M,2.533,N,4.690,K,D*35
$GPGGA,134111.00,3946.92648,N,03249.28818,E,2,08,1.12,1024.0,M,35.7,M,,0000*6A
$GPGSA,A,3,01,32,11,20,31,23,14,17,,,,,1.88,1.12,1.52*05
$GPGSV,3,1,12,01,78,274,46,11,58,197,44,13,01,223,,14,17,046,28*7C
$GPGSV,3,2,12,17,15,314,30,19,13,194,,20,46,297,31,23,30,228,40*7A
$GPGSV,3,3,12,31,40,091,39,32,71,002,39,33,23,240,36,39,43,191,37*73
$GPGLL,3946.92648,N,03249.28818,E,134111.00,A,D*65
$GPRMC,134112.00,A,3946.92717,N,03249.28791,E,2.532,342.79,011213,,,D*69
$GPVTG,342.79,T,,M,2.532,N,4.690,K,D*3E
$GPGGA,134112.00,3946.92717,N,03249.28791,E,2,09,1.12,1023.9,M,35.7,M,,0000*63
$GPGSA,A,3,01,32,11,20,31,23,14,19,17,,,,1.88,1.12,1.52*0D
$GPGSV,3,1,12,01,78,274,43,11,58,197,46,13,01,223,,14,17,046,32*70
$GPGSV,3,2,12,17,15,314,29,19,13,194,23,20,46,297,37,23,30,228,41*74
$GPGSV,3,3,12,31,40,091,38,32,71,002,40,33,23,240,35,39,43,191,37*7F
$GPGLL,3946.92717,N,03249.28791,E,134112.00,A,D*63
$GPRMC,134113.00,A,3946.92784,N,03249.28766,E,2.448,342.46,011213,,,D*6A
$GPVTG,342.46,T,,M,2.448,N,4.533,K,D*34
$GPGGA,134113.00,3946.92784,N,03249.28766,E,2,09,1.12,1023.7,M,35.7,M,,0000*6E
$GPGSA,A,3,01,32,11,20,31,23,14,19,17,,,,1.88,1.12,1.52*0D
$GPGSV,3,1,12,01,78,274,43,11,58,197,45,13,01,223,,14,17,046,33*72
$GPGSV,3,2,12,17,16,313,30,19,13,194,22,20,46,297,35,23,30,228,37*7A
$GPGSV,3,3,12,31,40,091,39,32,71,002,40,33,23,240,35,39,43,191,37*7E
$GPGLL,3946.92784,N,03249.28766,E,134113.00,A,D*60
$GPRMC,134114.00,A,3946.92851,N,03249.28749,E,2.295,344.64,011213,,,D*67
$GPVTG,344.64,T,,M,2.295,N,4.251,K,D*37
$GPGGA,134114.00,3946.92851,N,03249.28749,E,2,09,0.92,1023.6,M,35.7,M,,0000*6B
$GPGSA,A,3,01,32,11,20,31,23,14,19,17,,,,1.51,0.92,1.19*0F
$GPGSV,3,1,12,01,78,274,43,11,58,197,44,13,01,223,,14,17,046,33*73
$GPGSV,3,2,12,17,16,313,29,19,13,194,23,20,46,297,34,23,30,228,35*70
$GPGSV,3,3,12,31,40,091,41,32,71,002,40,33,23,240,35,39,43,191,37*71
$GPGLL,3946.92851,N,03249.28749,E,134114.00,A,D*6D
$GPRMC,134115.00,A,3946.92917,N,03249.28725,E,2.486,343.94,011213,,,D*63
$GPVTG,343.94,T,,M,2.486,N,4.605,K,D*3E
$GPGGA,134115.00,3946.92917,N,03249.28725,E,2,09,0.92,1023.5,M,35.7,M,,0000*60
$GPGSA,A,3,01,32,11,20,31,23,14,19,17,,,,1.51,0.92,1.19*0F
$GPGSV,3,1,12,01,78,274,46,11,58,197,43,13,01,223,,14,17,046,26*75
$GPGSV,3,2,12,17,16,313,33,19,12,194,20,20,46,297,39,23,30,228,42*74
$GPGSV,3,3,12,31,40,091,37,32,71,002,36,33,23,240,35,39,43,191,35*73
$GPGLL,3946.92917,N,03249.28725,E,134115.00,A,D*65
$GPRMC,134116.00,A,3946.92987,N,03249.28703,E,2.571,345.52,011213,,,D*68
$GPVTG,345.52,T,,M,2.571,N,4.761,K,D*38
$GPGGA,134116.00,3946.92987,N,03249.28703,E,2,08,1.12,1023.4,M,35.7,M,,0000*67
$GPGSA,A,3,01,32,11,20,31,23,14,17,,,,,1.88,1.12,1.52*05
$GPGSV,3,1,12,01,78,274,46,11,58,197,44,13,01,223,,14,17,046,32*77
$GPGSV,3,2,12,17,16,313,33,19,12,194,,20,46,297,36,23,30,228,42*79
$GPGSV,3,3,12,31,40,091,41,32,71,002,38,33,23,240,35,39,43,191,35*7C
$GPGLL,3946.92987,N,03249.28703,E,134116.00,A,D*6B
$GPRMC,134117.00,A,3946.93058,N,03249.28688,E,2.540,347.60,011213,,,D*60
$GPVTG,347.60,T,,M,2.540,N,4.705,K,D*3B
$GPGGA,134117.00,3946.93058,N,03249.28688,E,2,09,1.12,1023.4,M,35.7,M,,0000*6F
$GPGSA,A,3,01,32,11,20,31,23,14,19,17,,,,1.88,1.12,1.52*0D
$GPGSV,3,1,12,01,78,274,46,11,58,197,44,13,01,223,,14,17,046,25*71
$GPGSV,3,2,12,17,16,313,33,19,12,194,21,20,46,297,37,23,30,228,43*7A
$GPGSV,3,3,12,31,40,091,40,32,71,002,39,33,23,240,35,39,43,191,36*7F
$GPGLL,3946.93058,N,03249.28688,E,134117.00,A,D*62
$GPRMC,134118.00,A,3946.93129,N,03249.28668,E,2.519,347.07,011213,,,D*6B
$GPVTG,347.07,T,,M,2.519,N,4.666,K,D*32
$GPGGA,134118.00,3946.93129,N,03249.28668,E,2,09,1.12,1023.3,M,35.7,M,,0000*6E
$GPGSA,A,3,01,32,11,20,31,23,14,19,17,,,,1.88,1.12,1.52*0D
$GPGSV,3,1,12,01,78,274,45,11,58,197,44,13,01,223,,14,17,046,34*72
$GPGSV,3,2,12,17,16,313,33,19,12,194,23,20,46,297,38,23,30,228,43*77
$GPGSV,3,3,12,31,40,091,43,32,71,002,37,33,23,240,35,39,43,191,36*72
$GPGLL,3946.93129,N,03249.28668,E,134118.00,A,D*64
$GPRMC,134119.00,A,3946.93195,N,03249.28656,E,2.215,350.73,011213,,,D*6E
$GPVTG,350.73,T,,M,2.215,N,4.103,K,D*38
$GPGGA,134119.00,3946.93195,N,03249.28656,E,2,09,0.92,1023.2,M,35.7,M,,0000*6D
$GPGSA,A,3,01,32,11,20,31,23,14,19,17,,,,1.51,0.92,1.19*0F
$GPGSV,3,1,12,01,78,274,45,11,58,197,44,13,01,223,,14,17,046,37*71
$GPGSV,3,2,12,17,16,313,36,19,12,194,22,20,46,297,39,23,31,228,41*71
$GPGSV,3,3,12,31,40,091,42,32,71,002,34,33,23,240,34,39,43,191,36*71
$GPGLL,3946.93195,N,03249.28656,E,134119.00,A,D*6F
$GPRMC,134120.00,A,3946.93243,N,03249.28670,E,1.562,358.59,011213,,,D*6C
$GPVTG,358.59,T,,M,1.562,N,2.893,K,D*3A
$GPGGA,134120.00,3946.93243,N,03249.28670,E,2,09,0.92,1023.1,M,35.7,M,,0000*68
$GPGSA,A,3,01,32,11,20,31,23,14,19,17,,,,1.51,0.92,1.19*0F
$GPGSV,3,1,12,01,78,274,44,11,58,197,43,13,01,223,,14,17,046,31*71
$GPGSV,3,2,12,17,16,313,29,19,12,194,22,20,46,297,42,23,31,228,37*72
$GPGSV,3,3,12,31,40,091,38,32,71,002,37,33,23,240,29,39,43,191,34*71
$GPGLL,3946.93243,N,03249.28670,E,134120.00,A,D*69
$GPRMC,134121.00,A,3946.93246,N,03249.28703,E,1.128,36.68,011213,,,D*5E
$GPVTG,36.68,T,,M,1.128,N,2.089,K,D*0A
$GPGGA,134121.00,3946.93246,N,03249.28703,E,2,09,0.92,1023.2,M,35.7,M,,0000*6A
$GPGSA,A,3,01,32,11,20,31,23,14,19,17,,,,1.51,0.92,1.19*0F
$GPGSV,3,1,12,01,78,274,46,11,58,197,44,13,01,223,,14,17,046,34*71
$GPGSV,3,2,12,17,16,313,33,19,12,194,34,20,46,297,42,23,31,228,42*7C
$GPGSV,3,3,12,31,40,091,36,32,71,002,42,33,23,240,33,39,43,191,36*74
$GPGLL,3946.93246,N,03249.28703,E,134121.00,A,D*68
$GPRMC,134122.00,A,3946.93213,N,03249.28744,E,1.914,90.16,011213,,,D*5C
$GPVTG,90.16,T,,M,1.914,N,3.545,K,D*0C
$GPGGA,134122.00,3946.93213,N,03249.28744,E,2,09,0.92,1023.0,M,35.7,M,,0000*68
$GPGSA,A,3,01,32,11,20,31,23,14,19,17,,,,1.51,0.92,1.19*0F
$GPGSV,3,1,12,01,78,274,47,11,58,197,40,13,01,223,,14,17,046,35*75
$GPGSV,3,2,12,17,16,313,30,19,12,194,30,20,46,297,45,23,31,228,38*71
$GPGSV,3,3,12,31,40,091,36,32,71,002,42,33,23,240,33,39,43,191,28*7B
$GPGLL,3946.93213,N,03249.28744,E,134122.00,A,D*68
$GPRMC,134123.00,A,3946.93156,N,03249.28766,E,2.357,154.08,011213,,,D*67
$GPVTG,154.08,T,,M,2.357,N,4.365,K,D*37
$GPGGA,134123.00,3946.93156,N,03249.28766,E,2,09,0.92,1022.9,M,35.7,M,,0000*63
$GPGSA,A,3,01,32,11,20,31,23,14,19,17,,,,1.51,0.92,1.19*0F
$GPGSV,3,1,12,01,78,274,46,11,58,197,38,13,01,223,,14,17,046,35*7B
$GPGSV,3,2,12,17,16,313,34,19,12,194,20,20,46,297,44,23,31,228,35*78
$GPGSV,3,3,12,31,40,091,41,32,71,002,43,33,23,240,33,39,43,191,28*7A
$GPGLL,3946.93156,N,03249.28766,E,134123.00,A,D*6B
$GPRMC,134124.00,A,3946.93090,N,03249.28784,E,2.561,162.22,011213,,,D*69
$GPVTG,162.22,T,,M,2.561,N,4.742,K,D*38
$GPGGA,134124.00,3946.93090,N,03249.28784,E,2,09,0.92,1022.9,M,35.7,M,,0000*63
$GPGSA,A,3,01,32,11,20,31,23,14,19,17,,,,1.51,0.92,1.19*0F
$GPGSV,3,1,12,01,78,274,45,11,58,197,36,13,01,223,,14,17,046,37*74
$GPGSV,3,2,12,17,16,313,34,19,12,194,21,20,46,297,44,23,31,228,32*7E
$GPGSV,3,3,12,31,40,091,40,32,71,002,41,33,23,240,28,39,43,191,27*7C
$GPGLL,3946.93090,N,03249.28784,E,134124.00,A,D*6B
$GPRMC,134125.00,A,3946.93022,N,03249.28804,E,2.689,164.93,011213,,,D*6F
$GPVTG,164.93,T,,M,2.689,N,4.981,K,D*30
$GPGGA,134125.00,3946.93022,N,03249.28804,E,2,09,0.92,1023.0,M,35.7,M,,0000*64
$GPGSA,A,3,01,32,11,20,31,23,14,19,17,,,,1.51,0.92,1.19*0F
$GPGSV,3,1,12,01,78,274,45,11,58,197,36,13,01,223,,14,17,046,37*74
$GPGSV,3,2,12,17,16,313,36,19,12,194,22,20,46,297,47,23,31,228,31*7F
$GPGSV,3,3,12,31,40,091,42,32,71,002,43,33,23,240,27,39,43,191,29*7D
$GPGLL,3946.93022,N,03249.28804,E,134125.00,A,D*64
$GPRMC,134126.00,A,3946.92951,N,03249.28826,E,2.621,166.30,011213,,,D*69
$GPVTG,166.30,T,,M,2.621,N,4.854,K,D*30
$GPGGA,134126.00,3946.92951,N,03249.28826,E,2,08,1.12,1023.0,M,35.7,M,,0000*63
$GPGSA,A,3,01,32,11,20,31,23,14,17,,,,,1.88,1.12,1.52*05
$GPGSV,3,1,12,01,78,274,46,11,58,197,38,13,01,223,,14,17,046,34*7A
$GPGSV,3,2,12,17,16,313,37,19,12,194,,20,46,297,46,23,31,228,31*7F
$GPGSV,3,3,12,31,40,091,42,32,71,002,44,33,23,240,28,39,43,191,28*74
$GPGLL,3946.92951,N,03249.28826,E,134126.00,A,D*6B
$GPRMC,134127.00,A,3946.92873,N,03249.28838,E,2.731,170.97,011213,,,D*6C
$GPVTG,170.97,T,,M,2.731,N,5.059,K,D*3E
$GPGGA,134127.00,3946.92873,N,03249.28838,E,2,08,1.12,1023.0,M,35.7,M,,0000*6C
$GPGSA,A,3,01,32,11,20,31,23,14,17,,,,,1.88,1.12,1.52*05
$GPGSV,3,1,12,01,78,274,46,11,58,197,40,13,01,223,,14,17,046,36*77
$GPGSV,3,2,12,17,16,313,40,19,12,194,,20,46,297,45,23,31,228,35*78
$GPGSV,3,3,12,31,40,090,41,32,71,002,43,33,23,240,28,39,43,191,27*7E
$GPGLL,3946.92873,N,03249.28838,E,134127.00,A,D*64
$GPRMC,134128.00,A,3946.92796,N,03249.28849,E,2.791,171.20,011213,,,D*66
$GPVTG,171.20,T,,M,2.791,N,5.169,K,D*3B
$GPGGA,134128.00,3946.92796,N,03249.28849,E,2,08,1.12,1022.8,M,35.7,M,,0000*68
$GPGSA,A,3,01,32,11,20,31,23,14,17,,,,,1.88,1.12,1.52*05
$GPGSV,3,1,12,01,78,274,47,11,58,197,40,13,01,223,,14,17,046,37*77
$GPGSV,3,2,12,17,16,313,38,19,12,194,05,20,46,297,48,23,31,228,34*7E
$GPGSV,3,3,12,31,40,090,39,32,71,003,43,33,23,240,34,39,43,191,28*72
$GPGLL,3946.92796,N,03249.28849,E,134128.00,A,D*69
$GPRMC,134129.00,A,3946.92720,N,03249.28866,E,2.714,170.40,011213,,,D*6D
$GPVTG,170.40,T,,M,2.714,N,5.026,K,D*3B
$GPGGA,134129.00,3946.92720,N,03249.28866,E,2,08,1.12,1022.6,M,35.7,M,,0000*67
$GPGSA,A,3,01,32,11,20,31,23,14,17,,,,,1.88,1.12,1.52*05
$GPGSV,3,1,12,01,78,274,46,11,58,197,40,13,01,223,,14,17,046,36*77
$GPGSV,3,2,12,17,16,313,37,19,12,194,,20,46,297,46,23,31,228,36*78
$GPGSV,3,3,12,31,40,090,39,32,71,003,42,33,23,240,33,39,43,191,28*74
$GPGLL,3946.92720,N,03249.28866,E,134129.00,A,D*68
$GPRMC,134130.00,A,3946.92648,N,03249.28881,E,2.483,170.45,011213,,,D*6B
$GPVTG,170.45,T,,M,2.483,N,4.598,K,D*32
$GPGGA,134130.00,3946.92648,N,03249.28881,E,2,09,1.12,1022.2,M,35.7,M,,0000*6C
$GPGSA,A,3,01,32,11,20,31,23,14,19,17,,,,1.88,1.12,1.52*0D
$GPGSV,3,1,12,01,78,274,46,11,58,197,39,13,01,223,,14,17,046,34*7B
$GPGSV,3,2,12,17,16,313,35,19,12,194,20,20,46,297,46,23,31,228,33*7D
$GPGSV,3,3,12,31,40,090,39,32,71,003,43,33,23,240,30,39,43,191,28*76
$GPGLL,3946.92648,N,03249.28881,E,134130.00,A,D*66
$GPRMC,134131.00,A,3946.92580,N,03249.28898,E,2.616,169.31,011213,,,D*60
$GPVTG,169.31,T,,M,2.616,N,4.844,K,D*3B
$GPGGA,134131.00,3946.92580,N,03249.28898,E,2,09,1.12,1022.3,M,35.7,M,,0000*63
$GPGSA,A,3,01,32,11,20,31,23,14,19,17,,,,1.89,1.12,1.52*0C
$GPGSV,3,1,12,01,78,274,46,11,58,197,40,13,01,223,,14,17,046,36*77
$GPGSV,3,2,12,17,16,313,35,19,12,194,17,20,46,297,46,23,31,228,33*79
$GPGSV,3,3,12,31,40,090,40,32,71,003,43,33,23,240,31,39,43,191,*73
$GPGLL,3946.92580,N,03249.28898,E,134131.00,A,D*68
$GPRMC,134132.00,A,3946.92511,N,03249.28922,E,2.680,167.14,011213,,,D*6D
$GPVTG,167.14,T,,M,2.680,N,4.963,K,D*39
$GPGGA,134132.00,3946.92511,N,03249.28922,E,2,09,1.12,1022.3,M,35.7,M,,0000*68
$GPGSA,A,3,01,32,11,20,31,23,14,19,17,,,,1.89,1.12,1.52*0C
$GPGSV,3,1,12,01,78,274,46,11,58,197,38,13,01,223,,14,17,046,37*79
$GPGSV,3,2,12,17,16,313,35,19,12,194,15,20,46,297,46,23,31,228,29*70
$GPGSV,3,3,12,31,40,090,40,32,71,003,43,33,23,240,32,39,43,191,31*72
$GPGLL,3946.92511,N,03249.28922,E,134132.00,A,D*63
$GPRMC,134133.00,A,3946.92442,N,03249.28945,E,2.563,166.44,011213,,,D*60
$GPVTG,166.44,T,,M,2.563,N,4.747,K,D*3B
$GPGGA,134133.00,3946.92442,N,03249.28945,E,2,08,1.12,1022.4,M,35.7,M,,0000*69
$GPGSA,A,3,01,32,11,20,31,23,14,17,,,,,1.89,1.12,1.52*04
$GPGSV,3,1,12,01,78,274,45,11,58,197,38,13,01,223,,14,17,046,36*7B
$GPGSV,3,2,12,17,16,313,38,19,12,194,,20,46,297,46,23,31,228,36*77
$GPGSV,3,3,12,31,40,090,40,32,71,003,42,33,23,240,29,39,43,191,29*70
$GPGLL,3946.92442,N,03249.28945,E,134133.00,A,D*64
$GPRMC,134134.00,A,3946.92371,N,03249.28966,E,2.585,167.17,011213,,,D*6E
$GPVTG,167.17,T,,M,2.585,N,4.788,K,D*37
$GPGGA,134134.00,3946.92371,N,03249.28966,E,2,08,1.12,1022.3,M,35.7,M,,0000*6F
$GPGSA,A,3,01,32,11,20,31,23,14,17,,,,,1.89,1.12,1.52*04
$GPGSV,3,1,12,01,78,274,45,11,58,197,38,13,01,223,,14,17,046,36*7B
$GPGSV,3,2,12,17,16,313,37,19,12,194,,20,46,297,46,23,31,228,33*7D
$GPGSV,3,3,12,31,40,090,38,32,71,003,42,33,23,240,29,39,43,191,28*7E
$GPGLL,3946.92371,N,03249.28966,E,134134.00,A,D*65
$GPRMC,134135.00,A,3946.92297,N,03249.28989,E,2.718,166.79,011213,,,D*68
$GPVTG,166.79,T,,M,2.718,N,5.034,K,D*39
$GPGGA,134135.00,3946.92297,N,03249.28989,E,2,08,1.12,1022.3,M,35.7,M,,0000*66
$GPGSA,A,3,01,32,11,20,31,23,14,17,,,,,1.89,1.12,1.52*04
$GPGSV,3,1,12,01,78,274,47,11,58,197,38,13,01,223,,14,17,046,36*79
$GPGSV,3,2,12,17,16,313,37,19,12,194,,20,46,297,45,23,31,228,29*75
$GPGSV,3,3,12,31,40,090,40,32,71,003,42,33,23,240,28,39,43,191,30*79
$GPGLL,3946.92297,N,03249.28989,E,134135.00,A,D*6C
$GPRMC,134136.00,A,3946.92222,N,03249.29007,E,2.689,168.37,011213,,,D*66
$GPVTG,168.37,T,,M,2.689,N,4.979,K,D*35
$GPGGA,134136.00,3946.92222,N,03249.29007,E,2,08,1.12,1022.2,M,35.7,M,,0000*64
$GPGSA,A,3,01,32,11,20,31,23,14,17,,,,,1.89,1.12,1.52*04
$GPGSV,3,1,12,01,78,274,46,11,58,197,38,13,01,223,,14,17,046,36*78
$GPGSV,3,2,12,17,16,313,38,19,12,194,,20,46,297,45,23,31,228,30*72
$GPGSV,3,3,12,31,40,090,37,32,71,003,42,33,23,240,28,39,43,191,29*71
$GPGLL,3946.92222,N,03249.29007,E,134136.00,A,D*6F
$GPRMC,134137.00,A,3946.92146,N,03249.29031,E,2.831,167.02,011213,,,D*67
$GPVTG,167.02,T,,M,2.831,N,5.243,K,D*32
$GPGGA,134137.00,3946.92146,N,03249.29031,E,2,09,1.12,1022.5,M,35.7,M,,0000*67
$GPGSA,A,3,01,32,11,20,31,23,14,19,17,,,,1.89,1.12,1.52*0C
$GPGSV,3,1,12,01,78,274,46,11,58,197,38,13,01,223,,14,17,046,37*79
$GPGSV,3,2,12,17,16,313,38,19,12,194,17,20,46,297,45,23,31,228,34*70
$GPGSV,3,3,12,31,40,090,38,32,71,003,43,33,23,240,30,39,43,191,29*76
$GPGLL,3946.92146,N,03249.29031,E,134137.00,A,D*6A
$GPRMC,134138.00,A,3946.92066,N,03249.29065,E,3.253,163.44,011213,,,D*63
$GPVTG,163.44,T,,M,3.253,N,6.025,K,D*3A
$GPGGA,134138.00,3946.92066,N,03249.29065,E,2,09,1.12,1023.0,M,35.7,M,,0000*6E
$GPGSA,A,3,01,32,11,20,31,23,14,19,17,,,,1.89,1.12,1.52*0C
$GPGSV,3,1,12,01,78,274,45,11,58,197,33,13,01,223,,14,17,046,38*7E
$GPGSV,3,2,12,17,16,313,36,19,12,194,23,20,46,297,45,23,31,228,38*75
$GPGSV,3,3,12,31,40,090,35,32,71,003,43,33,23,240,34,39,43,191,29*7F
$GPGLL,3946.92066,N,03249.29065,E,134138.00,A,D*67
$GPRMC,134139.00,A,3946.91985,N,03249.29089,E,2.736,166.19,011213,,,D*6D
$GPVTG,166.19,T,,M,2.736,N,5.066,K,D*34
$GPGGA,134139.00,3946.91985,N,03249.29089,E,2,09,1.12,1022.9,M,35.7,M,,0000*62
$GPGSA,A,3,01,32,11,20,31,23,14,19,17,,,,1.89,1.12,1.52*0C
$GPGSV,3,1,12,01,78,274,44,11,58,197,32,13,01,223,,14,17,046,36*70
$GPGSV,3,2,12,17,16,313,37,19,12,194,24,20,46,297,43,23,31,228,41*7B
$GPGSV,3,3,12,31,40,090,39,32,71,003,43,33,23,240,30,39,43,191,30*7F
$GPGLL,3946.91985,N,03249.29089,E,134139.00,A,D*63
$GPRMC,134140.00,A,3946.91900,N,03249.29095,E,2.909,172.64,011213,,,A*6B
$GPVTG,172.64,T,,M,2.909,N,5.388,K,A*3F
$GPGGA,134140.00,3946.91900,N,03249.29095,E,1,09,0.92,1022.6,M,35.7,M,,*69
$GPGSA,A,3,01,32,11,20,31,23,14,19,17,,,,1.51,0.92,1.19*0F
$GPGSV,3,1,12,01,78,274,46,11,58,197,35,13,01,223,,14,17,046,38*7B
$GPGSV,3,2,12,17,16,313,39,19,12,194,31,20,46,297,43,23,31,228,37*70
$GPGSV,3,3,12,31,40,090,41,32,71,003,43,33,23,240,30,39,43,191,30*70
$GPGLL,3946.91900,N,03249.29095,E,134140.00,A,A*68
$GPRMC,134141.00,A,3946.91822,N,03249.29105,E,2.731,171.88,011213,,,A*67
$GPVTG,171.88,T,,M,2.731,N,5.057,K,A*3A
$GPGGA,134141.00,3946.91822,N,03249.29105,E,1,09,0.92,1022.5,M,35.7,M,,*62
$GPGSA,A,3,01,32,11,20,31,23,14,19,17,,,,1.51,0.92,1.19*0F
$GPGSV,3,1,12,01,78,274,46,11,58,197,33,13,01,223,,14,17,046,36*73
$GPGSV,3,2,12,17,16,313,39,19,12,194,29,20,46,297,43,23,31,228,37*79
$GPGSV,3,3,12,31,40,090,39,32,71,003,43,33,23,240,28,39,43,191,31*77
$GPGLL,3946.91822,N,03249.29105,E,134141.00,A,A*60
$GPRMC,134142.00,A,3946.91735,N,03249.29120,E,3.084,171.49,011213,,,A*6F
$GPVTG,171.49,T,,M,3.084,N,5.711,K,A*3A
$GPGGA,134142.00,3946.91735,N,03249.29120,E,1,09,0.92,1022.3,M,35.7,M,,*69
$GPGSA,A,3,01,32,11,20,31,23,14,19,17,,,,1.51,0.92,1.19*0F
$GPGSV,3,1,12,01,78,274,42,11,58,197,35,13,01,223,,14,17,046,38*7F
$GPGSV,3,2,12,17,16,313,36,19,12,194,30,20,46,297,41,23,31,228,36*7D
$GPGSV,3,3,12,31,40,090,34,32,71,003,42,33,23,240,29,39,43,191,30*7B
$GPGLL,3946.91735,N,03249.29120,E,134142.00,A,A*6D
$GPRMC,134143.00,A,3946.91656,N,03249.29128,E,2.562,175.11,011213,,,A*67
$GPVTG,175.11,T,,M,2.562,N,4.745,K,A*3F
$GPGGA,134143.00,3946.91656,N,03249.29128,E,1,09,0.92,1022.3,M,35.7,M,,*64
$GPGSA,A,3,01,32,11,20,31,23,14,19,17,,,,1.51,0.92,1.19*0F
$GPGSV,3,1,12,01,78,274,44,11,58,197,29,13,01,223,,14,17,046,40*7B
$GPGSV,3,2,12,17,16,313,38,19,12,194,34,20,46,297,44,23,31,228,38*7C
$GPGSV,3,3,12,31,40,090,34,32,71,003,41,33,23,240,30,39,43,191,31*71
$GPGLL,3946.91656,N,03249.29128,E,134143.00,A,A*60
$GPRMC,134144.00,A,3946.91581,N,03249.29142,E,2.708,171.34,011213,,,A*68
$GPVTG,171.34,T,,M,2.708,N,5.016,K,A*32
$GPGGA,134144.00,3946.91581,N,03249.29142,E,1,09,0.92,1022.2,M,35.7,M,,*67
$GPGSA,A,3,01,32,11,20,31,23,14,19,17,,,,1.51,0.92,1.19*0F
$GPGSV,3,1,12,01,78,274,46,11,58,197,33,13,01,223,,14,17,046,37*72
$GPGSV,3,2,12,17,16,313,37,19,12,194,36,20,46,297,44,23,31,228,38*71
$GPGSV,3,3,12,31,40,090,39,32,71,003,44,33,23,240,29,39,43,191,33*73
$GPGLL,3946.91581,N,03249.29142,E,134144.00,A,A*62
$GPRMC,134145.00,A,3946.91506,N,03249.29152,E,2.622,174.82,011213,,,A*66
$GPVTG,174.82,T,,M,2.622,N,4.855,K,A*3D
$GPGGA,134145.00,3946.91506,N,03249.29152,E,1,09,0.92,1022.1,M,35.7,M,,*6B
$GPGSA,A,3,01,32,11,20,31,23,14,19,17,,,,1.51,0.92,1.19*0F
$GPGSV,3,1,12,01,78,274,44,11,58,197,30,13,01,223,,14,17,046,37*73
$GPGSV,3,2,12,17,16,313,41,19,12,194,29,20,46,297,45,23,31,228,36*71
$GPGSV,3,3,12,31,40,090,40,32,71,003,41,33,23,240,28,39,43,191,32*78
$GPGLL,3946.91506,N,03249.29152,E,134145.00,A,A*6D
$GPRMC,134146.00,A,3946.91425,N,03249.29163,E,2.919,173.61,011213,,,A*6A
$GPVTG,173.61,T,,M,2.919,N,5.406,K,A*3B
$GPGGA,134146.00,3946.91425,N,03249.29163,E,1,09,0.92,1021.9,M,35.7,M,,*61
$GPGSA,A,3,01,32,11,20,31,23,14,19,17,,,,1.51,0.92,1.19*0F
$GPGSV,3,1,12,01,78,274,45,11,58,197,33,13,01,223,,14,17,046,38*7E
$GPGSV,3,2,12,17,16,313,37,19,12,194,29,20,46,297,44,23,31,228,36*71
$GPGSV,3,3,12,31,40,090,43,32,71,003,41,33,23,240,27,39,43,191,30*76
$GPGLL,3946.91425,N,03249.29163,E,134146.00,A,A*6C
$GPRMC,134147.00,A,3946.91342,N,03249.29179,E,2.914,171.80,011213,,,A*66
$GPVTG,171.80,T,,M,2.914,N,5.396,K,A*35
$GPGGA,134147.00,3946.91342,N,03249.29179,E,1,09,0.92,1021.8,M,35.7,M,,*6C
$GPGSA,A,3,01,32,11,20,31,23,14,19,17,,,,1.51,0.92,1.19*0F
$GPGSV,3,1,12,01,78,274,45,11,58,197,36,13,01,223,,14,17,046,35*76
$GPGSV,3,2,12,17,16,313,37,19,12,194,31,20,46,297,46,23,31,228,34*78
$GPGSV,3,3,12,31,40,090,42,32,71,003,43,33,23,240,27,39,43,191,31*74
$GPGLL,3946.91342,N,03249.29179,E,134147.00,A,A*60
$GPRMC,134148.00,A,3946.91257,N,03249.29189,E,3.080,173.48,011213,,,A*60
$GPVTG,173.48,T,,M,3.080,N,5.704,K,A*39
$GPGGA,134148.00,3946.91257,N,03249.29189,E,1,09,0.92,1021.6,M,35.7,M,,*67
$GPGSA,A,3,01,32,11,20,31,23,14,19,17,,,,1.51,0.92,1.19*0F
$GPGSV,3,1,12,01,78,274,45,11,58,197,36,13,01,223,,14,17,046,38*7B
$GPGSV,3,2,12,17,16,313,39,19,12,194,26,20,46,297,46,23,31,228,33*77
$GPGSV,3,3,12,31,40,090,41,32,71,003,41,33,23,240,,39,43,191,29*79
$GPGLL,3946.91257,N,03249.29189,E,134148.00,A,A*65
$GPRMC,134149.00,A,3946.91171,N,03249.29203,E,2.867,171.84,011213,,,A*65
$GPVTG,171.84,T,,M,2.867,N,5.310,K,A*3A
$GPGGA,134149.00,3946.91171,N,03249.29203,E,1,09,0.92,1021.5,M,35.7,M,,*63
$GPGSA,A,3,01,32,11,20,31,23,14,19,17,,,,1.51,0.92,1.19*0F
$GPGSV,4,1,13,01,78,274,46,11,58,197,39,13,01,223,,14,17,046,35*7C
$GPGSV,4,2,13,17,16,313,39,19,12,194,26,20,46,297,44,23,31,228,34*74
$GPGSV,4,3,13,25,,,25,31,40,090,39,32,71,003,42,33,23,240,*4C
$GPGSV,4,4,13,39,43,191,27*4A
$GPGLL,3946.91171,N,03249.29203,E,134149.00,A,A*62
$GPRMC,134150.00,A,3946.91096,N,03249.29229,E,2.736,166.10,011213,,,A*6D
$GPVTG,166.10,T,,M,2.736,N,5.067,K,A*39
$GPGGA,134150.00,3946.91096,N,03249.29229,E,1,09,0.92,1021.5,M,35.7,M,,*6B
$GPGSA,A,3,01,32,11,20,31,23,14,19,17,,,,1.51,0.92,1.19*0F
$GPGSV,4,1,13,01,78,274,44,11,58,197,37,13,01,223,,14,17,046,38*7D
$GPGSV,4,2,13,17,16,313,39,19,12,194,31,20,46,297,44,23,31,228,36*70
$GPGSV,4,3,13,25,,,23,31,40,090,40,32,71,003,42,33,23,240,*44
$GPGSV,4,4,13,39,43,191,27*4A
$GPGLL,3946.91096,N,03249.29229,E,134150.00,A,A*6A
$GPRMC,134151.00,A,3946.91017,N,03249.29248,E,2.822,169.47,011213,,,A*65
$GPVTG,169.47,T,,M,2.822,N,5.226,K,A*39
$GPGGA,134151.00,3946.91017,N,03249.29248,E,1,09,0.92,1021.5,M,35.7,M,,*64
$GPGSA,A,3,01,32,11,20,31,23,14,19,17,,,,1.51,0.92,1.19*0F
$GPGSV,4,1,13,01,78,274,44,11,58,197,39,13,01,223,,14,17,046,37*7C
$GPGSV,4,2,13,17,16,313,37,19,12,194,33,20,46,297,44,23,31,228,38*72
$GPGSV,4,3,13,25,,,22,31,40,090,41,32,71,003,43,33,23,240,*45
$GPGSV,4,4,13,39,43,191,27*4A
$GPGLL,3946.91017,N,03249.29248,E,134151.00,A,A*65
$GPRMC,134152.00,A,3946.90938,N,03249.29260,E,2.682,171.07,011213,,,A*60
$GPVTG,171.07,T,,M,2.682,N,4.968,K,A*30
$GPGGA,134152.00,3946.90938,N,03249.29260,E,1,09,0.92,1021.5,M,35.7,M,,*68
$GPGSA,A,3,01,32,11,20,31,23,14,19,17,,,,1.51,0.92,1.19*0F
$GPGSV,4,1,13,01,78,274,46,11,58,197,40,13,01,223,,14,17,046,36*71
$GPGSV,4,2,13,17,16,313,37,19,12,194,21,20,46,297,46,23,31,228,34*7F
$GPGSV,4,3,13,25,,,22,31,40,090,40,32,71,003,42,33,23,240,*45
$GPGSV,4,4,13,39,43,191,29*44
$GPGLL,3946.90938,N,03249.29260,E,134152.00,A,A*69
$GPRMC,134153.00,A,3946.90866,N,03249.29275,E,2.593,170.55,011213,,,A*6A
$GPVTG,170.55,T,,M,2.593,N,4.803,K,A*39
$GPGGA,134153.00,3946.90866,N,03249.29275,E,1,09,0.92,1021.6,M,35.7,M,,*64
$GPGSA,A,3,01,32,11,20,31,23,14,19,17,,,,1.51,0.92,1.19*0F
$GPGSV,4,1,13,01,78,274,46,11,58,197,37,13,01,223,,14,17,046,38*7F
$GPGSV,4,2,13,17,16,313,37,19,12,194,29,20,46,297,46,23,31,228,34*77
$GPGSV,4,3,13,25,,,22,31,40,090,38,32,71,003,43,33,23,240,*4B
$GPGSV,4,4,13,39,43,191,31*4D
$GPGLL,3946.90866,N,03249.29275,E,134153.00,A,A*66
$GPRMC,134154.00,A,3946.90783,N,03249.29288,E,3.026,172.31,011213,,,A*61
$GPVTG,172.31,T,,M,3.026,N,5.605,K,A*3A
$GPGGA,134154.00,3946.90783,N,03249.29288,E,1,09,0.92,1021.6,M,35.7,M,,*65
$GPGSA,A,3,01,32,11,20,31,23,14,19,17,,,,1.51,0.92,1.19*0F
$GPGSV,3,1,12,01,78,274,45,11,58,197,36,13,01,223,,14,17,046,36*75
$GPGSV,3,2,12,17,16,313,32,19,12,194,29,20,46,297,41,23,31,228,38*7F
$GPGSV,3,3,12,31,40,090,38,32,71,003,44,33,23,240,,39,43,191,32*78
$GPGLL,3946.90783,N,03249.29288,E,134154.00,A,A*67
$GPRMC,134155.00,A,3946.90702,N,03249.29298,E,2.787,173.32,011213,,,A*67
$GPVTG,173.32,T,,M,2.787,N,5.162,K,A*33
$GPGGA,134155.00,3946.90702,N,03249.29298,E,1,09,0.92,1021.4,M,35.7,M,,*6E
$GPGSA,A,3,01,32,11,20,31,23,14,19,17,,,,1.51,0.92,1.19*0F
$GPGSV,3,1,12,01,78,274,45,11,58,197,33,13,01,223,,14,17,046,36*70
$GPGSV,3,2,12,17,16,313,32,19,12,194,33,20,46,297,43,23,31,228,40*79
$GPGSV,3,3,12,31,40,090,38,32,71,003,44,33,23,240,,39,43,191,33*79
$GPGLL,3946.90702,N,03249.29298,E,134155.00,A,A*6E
$GPRMC,134156.00,A,3946.90618,N,03249.29305,E,3.023,176.42,011213,,,A*61
$GPVTG,176.42,T,,M,3.023,N,5.599,K,A*39
$GPGGA,134156.00,3946.90618,N,03249.29305,E,1,09,0.92,1021.2,M,35.7,M,,*64
$GPGSA,A,3,01,32,11,20,31,23,14,19,17,,,,1.50,0.92,1.19*0E
$GPGSV,3,1,12,01,78,274,45,11,58,197,38,13,01,223,,14,17,046,37*7A
$GPGSV,3,2,12,17,16,313,32,19,12,194,28,20,46,297,44,23,31,228,27*75
$GPGSV,3,3,12,31,40,090,38,32,71,003,43,33,23,240,,39,43,191,35*78
$GPGLL,3946.90618,N,03249.29305,E,134156.00,A,A*62
$GPRMC,134157.00,A,3946.90498,N,03249.29299,E,4.460,179.90,011213,,,A*6A
$GPVTG,179.90,T,,M,4.460,N,8.259,K,A*3B
$GPGGA,134157.00,3946.90498,N,03249.29299,E,1,09,0.92,1020.0,M,35.7,M,,*68
$GPGSA,A,3,01,32,11,20,31,23,14,19,17,,,,1.50,0.92,1.19*0E
$GPGSV,3,1,12,01,78,274,45,11,58,197,38,13,01,223,,14,17,046,37*7A
$GPGSV,3,2,12,17,16,313,38,19,12,194,27,20,46,297,46,23,31,228,38*7C
$GPGSV,3,3,12,31,40,090,38,32,71,003,42,33,23,240,,39,43,191,31*7D
$GPGLL,3946.90498,N,03249.29299,E,134157.00,A,A*6D
$GPRMC,134158.00,A,3946.90401,N,03249.29307,E,3.282,177.63,011213,,,A*6C
$GPVTG,177.63,T,,M,3.282,N,6.078,K,A*3B
$GPGGA,134158.00,3946.90401,N,03249.29307,E,1,09,0.92,1019.5,M,35.7,M,,*6E
$GPGSA,A,3,01,32,11,20,31,23,14,19,17,,,,1.50,0.92,1.19*0E
$GPGSV,3,1,12,01,78,274,46,11,58,197,38,13,01,223,,14,17,046,37*79
$GPGSV,3,2,12,17,16,313,39,19,12,194,26,20,46,297,47,23,31,228,33*76
$GPGSV,3,3,12,31,40,090,38,32,71,003,43,33,23,240,,39,43,191,30*7D
$GPGLL,3946.90401,N,03249.29307,E,134158.00,A,A*64
$GPRMC,134159.00,A,3946.90342,N,03249.29322,E,2.091,175.08,011213,,,A*64
$GPVTG,175.08,T,,M,2.091,N,3.872,K,A*32
$GPGGA,134159.00,3946.90342,N,03249.29322,E,1,09,0.92,1019.8,M,35.7,M,,*65
$GPGSA,A,3,01,32,11,20,31,23,14,19,17,,,,1.50,0.92,1.19*0E
