$GPRMC,134001.00,A,3946.87745,N,03249.29659,E,0.062,,011213,,,A*7F
$GPRMC,134002.00,A,3946.87742,N,03249.29663,E,0.199,,011213,,,A*77
$GPRMC,134003.00,A,3946.87759,N,03249.29675,E,0.978,316.72,011213,,,A*63
$GPRMC,134004.00,A,3946.87807,N,03249.29683,E,1.938,351.47,011213,,,A*69
$GPRMC,134005.00,A,3946.87874,N,03249.29691,E,2.555,2.19,011213,,,A*65
$GPRMC,134006.00,A,3946.87947,N,03249.29697,E,2.651,1.59,011213,,,A*61
$GPRMC,134007.00,A,3946.88018,N,03249.29703,E,2.539,3.22,011213,,,A*63
$GPRMC,134008.00,A,3946.88091,N,03249.29705,E,2.602,0.99,011213,,,A*63
$GPRMC,134009.00,A,3946.88161,N,03249.29704,E,2.382,0.76,011213,,,A*61
$GPRMC,134010.00,A,3946.88220,N,03249.29715,E,2.127,0.78,011213,,,A*6C
$GPRMC,134011.00,A,3946.88286,N,03249.29708,E,2.511,354.98,011213,,,A*60
$GPRMC,134012.00,A,3946.88354,N,03249.29706,E,2.354,354.78,011213,,,A*6A
$GPRMC,134013.00,A,3946.88423,N,03249.29703,E,2.536,356.12,011213,,,A*65
$GPRMC,134014.00,A,3946.88492,N,03249.29703,E,2.403,356.14,011213,,,A*69
$GPRMC,134015.00,A,3946.88561,N,03249.29696,E,2.451,355.31,011213,,,A*6B
$GPRMC,134016.00,A,3946.88631,N,03249.29694,E,2.487,357.35,011213,,,A*61
$GPRMC,134017.00,A,3946.88706,N,03249.29696,E,2.709,358.63,011213,,,A*6E
$GPRMC,134018.00,A,3946.88778,N,03249.29694,E,2.547,356.91,011213,,,A*61
$GPRMC,134019.00,A,3946.88848,N,03249.29683,E,2.601,352.43,011213,,,A*60
$GPRMC,134020.00,A,3946.88918,N,03249.29672,E,2.503,352.33,011213,,,A*66
$GPRMC,134021.00,A,3946.88966,N,03249.29676,E,1.790,358.39,011213,,,A*61
$GPRMC,134022.00,A,3946.89030,N,03249.29673,E,2.334,356.23,011213,,,A*60
$GPRMC,134023.00,A,3946.89105,N,03249.29658,E,2.647,353.77,011213,,,A*6A
$GPRMC,134024.00,A,3946.89178,N,03249.29642,E,2.569,351.76,011213,,,A*60
$GPRMC,134025.00,A,3946.89252,N,03249.29622,E,2.645,349.60,011213,,,A*6F
$GPRMC,134026.00,A,3946.89330,N,03249.29599,E,2.839,347.18,011213,,,A*6E
$GPRMC,134027.00,A,3946.89408,N,03249.29588,E,2.757,351.33,011213,,,A*6A
$GPRMC,134028.00,A,3946.89491,N,03249.29575,E,2.792,353.38,011213,,,A*67
$GPRMC,134029.00,A,3946.89569,N,03249.29562,E,2.788,352.97,011213,,,A*69
$GPRMC,134030.00,A,3946.89650,N,03249.29548,E,2.842,353.02,011213,,,A*64
$GPRMC,134031.00,A,3946.89726,N,03249.29534,E,2.677,352.08,011213,,,A*6D
$GPRMC,134032.00,A,3946.89796,N,03249.29530,E,2.553,355.67,011213,,,A*6A
$GPRMC,134033.00,A,3946.89866,N,03249.29524,E,2.514,355.45,011213,,,A*6D
$GPRMC,134034.00,A,3946.89939,N,03249.29509,E,2.612,352.42,011213,,,A*6B
$GPRMC,134035.00,A,3946.90012,N,03249.29488,E,2.573,350.32,011213,,,A*6B
$GPRMC,134036.00,A,3946.90085,N,03249.29470,E,2.704,350.56,011213,,,A*61
$GPRMC,134037.00,A,3946.90158,N,03249.29450,E,2.638,348.91,011213,,,A*6F
$GPRMC,134038.00,A,3946.90228,N,03249.29433,E,2.513,349.30,011213,,,A*61
$GPRMC,134039.00,A,3946.90301,N,03249.29413,E,2.659,348.69,011213,,,A*68
$GPRMC,134040.00,A,3946.90372,N,03249.29393,E,2.596,348.33,011213,,,A*62
$GPRMC,134041.00,A,3946.90446,N,03249.29373,E,2.661,348.90,011213,,,D*6A
$GPRMC,134042.00,A,3946.90516,N,03249.29355,E,2.580,347.82,011213,,,D*69
$GPRMC,134043.00,A,3946.90594,N,03249.29336,E,2.847,347.86,011213,,,D*65
$GPRMC,134044.00,A,3946.90670,N,03249.29325,E,2.605,351.73,011213,,,D*6C
$GPRMC,134045.00,A,3946.90745,N,03249.29314,E,2.618,352.22,011213,,,D*63
$GPRMC,134046.00,A,3946.90818,N,03249.29306,E,2.597,354.92,011213,,,D*6D
$GPRMC,134047.00,A,3946.90897,N,03249.29296,E,2.727,355.08,011213,,,D*68
$GPRMC,134048.00,A,3946.90975,N,03249.29288,E,2.635,356.44,011213,,,D*6C
$GPRMC,134049.00,A,3946.91048,N,03249.29277,E,2.577,355.07,011213,,,D*6A
$GPRMC,134050.00,A,3946.91116,N,03249.29260,E,2.257,352.80,011213,,,D*63
$GPRMC,134051.00,A,3946.91184,N,03249.29248,E,2.432,354.40,011213,,,D*6C
$GPRMC,134052.00,A,3946.91253,N,03249.29233,E,2.532,350.83,011213,,,D*60
$GPRMC,134053.00,A,3946.91332,N,03249.29195,E,3.014,344.42,011213,,,D*60
$GPRMC,134054.00,A,3946.91408,N,03249.29169,E,2.437,346.96,011213,,,D*65
$GPRMC,134055.00,A,3946.91479,N,03249.29159,E,2.583,352.40,011213,,,D*61
$GPRMC,134056.00,A,3946.91551,N,03249.29147,E,2.572,352.39,011213,,,D*66
$GPRMC,134057.00,A,3946.91623,N,03249.29134,E,2.587,351.58,011213,,,D*6B
$GPRMC,134058.00,A,3946.91698,N,03249.29116,E,2.684,349.92,011213,,,D*6B
$GPRMC,134059.00,A,3946.91772,N,03249.29100,E,2.571,350.44,011213,,,D*62
$GPRMC,134100.00,A,3946.91844,N,03249.29079,E,2.728,348.23,011213,,,D*6C
$GPRMC,134101.00,A,3946.91913,N,03249.29055,E,2.467,346.80,011213,,,D*6F
$GPRMC,134102.00,A,3946.91984,N,03249.29038,E,2.642,348.89,011213,,,D*6B
$GPRMC,134103.00,A,3946.92058,N,03249.29022,E,2.588,350.95,011213,,,D*6B
$GPRMC,134104.00,A,3946.92134,N,03249.29006,E,2.779,350.25,011213,,,D*66
$GPRMC,134105.00,A,3946.92219,N,03249.28974,E,3.201,345.47,011213,,,D*6D
$GPRMC,134106.00,A,3946.92299,N,03249.28946,E,2.783,346.28,011213,,,D*63
$GPRMC,134107.00,A,3946.92374,N,03249.28924,E,2.696,347.03,011213,,,D*69
$GPRMC,134108.00,A,3946.92445,N,03249.28898,E,2.529,344.34,011213,,,D*65
$GPRMC,134109.00,A,3946.92514,N,03249.28871,E,2.526,343.31,011213,,,D*6B
$GPRMC,134110.00,A,3946.92582,N,03249.28844,E,2.494,342.69,011213,,,D*6E
$GPRMC,134111.00,A,3946.92648,N,03249.28818,E,2.533,342.15,011213,,,D*64
$GPRMC,134112.00,A,3946.92717,N,03249.28791,E,2.532,342.79,011213,,,D*69
$GPRMC,134113.00,A,3946.92784,N,03249.28766,E,2.448,342.46,011213,,,D*6A
$GPRMC,134114.00,A,3946.92851,N,03249.28749,E,2.295,344.64,011213,,,D*67
$GPRMC,134115.00,A,3946.92917,N,03249.28725,E,2.486,343.94,011213,,,D*63
$GPRMC,134116.00,A,3946.92987,N,03249.28703,E,2.571,345.52,011213,,,D*68
$GPRMC,134117.00,A,3946.93058,N,03249.28688,E,2.540,347.60,011213,,,D*60
$GPRMC,134118.00,A,3946.93129,N,03249.28668,E,2.519,347.07,011213,,,D*6B
$GPRMC,134119.00,A,3946.93195,N,03249.28656,E,2.215,350.73,011213,,,D*6E
$GPRMC,134120.00,A,3946.93243,N,03249.28670,E,1.562,358.59,011213,,,D*6C
$GPRMC,134121.00,A,3946.93246,N,03249.28703,E,1.128,36.68,011213,,,D*5E
$GPRMC,134122.00,A,3946.93213,N,03249.28744,E,1.914,90.16,011213,,,D*5C
$GPRMC,134123.00,A,3946.93156,N,03249.28766,E,2.357,154.08,011213,,,D*67
$GPRMC,134124.00,A,3946.93090,N,03249.28784,E,2.561,162.22,011213,,,D*69
$GPRMC,134125.00,A,3946.93022,N,03249.28804,E,2.689,164.93,011213,,,D*6F
$GPRMC,134126.00,A,3946.92951,N,03249.28826,E,2.621,166.30,011213,,,D*69
$GPRMC,134127.00,A,3946.92873,N,03249.28838,E,2.731,170.97,011213,,,D*6C
$GPRMC,134128.00,A,3946.92796,N,03249.28849,E,2.791,171.20,011213,,,D*66
$GPRMC,134129.00,A,3946.92720,N,03249.28866,E,2.714,170.40,011213,,,D*6D
$GPRMC,134130.00,A,3946.92648,N,03249.28881,E,2.483,170.45,011213,,,D*6B
$GPRMC,134131.00,A,3946.92580,N,03249.28898,E,2.616,169.31,011213,,,D*60
$GPRMC,134132.00,A,3946.92511,N,03249.28922,E,2.680,167.14,011213,,,D*6D
$GPRMC,134133.00,A,3946.92442,N,03249.28945,E,2.563,166.44,011213,,,D*60
$GPRMC,134134.00,A,3946.92371,N,03249.28966,E,2.585,167.17,011213,,,D*6E
$GPRMC,134135.00,A,3946.92297,N,03249.28989,E,2.718,166.79,011213,,,D*68
$GPRMC,134136.00,A,3946.92222,N,03249.29007,E,2.689,168.37,011213,,,D*66
$GPRMC,134137.00,A,3946.92146,N,03249.29031,E,2.831,167.02,011213,,,D*67
$GPRMC,134138.00,A,3946.92066,N,03249.29065,E,3.253,163.44,011213,,,D*63
$GPRMC,134139.00,A,3946.91985,N,03249.29089,E,2.736,166.19,011213,,,D*6D
$GPRMC,134140.00,A,3946.91900,N,03249.29095,E,2.909,172.64,011213,,,A*6B
$GPRMC,134141.00,A,3946.91822,N,03249.29105,E,2.731,171.88,011213,,,A*67
$GPRMC,134142.00,A,3946.91735,N,03249.29120,E,3.084,171.49,011213,,,A*6F
$GPRMC,134143.00,A,3946.91656,N,03249.29128,E,2.562,175.11,011213,,,A*67
$GPRMC,134144.00,A,3946.91581,N,03249.29142,E,2.708,171.34,011213,,,A*68
$GPRMC,134145.00,A,3946.91506,N,03249.29152,E,2.622,174.82,011213,,,A*66
$GPRMC,134146.00,A,3946.91425,N,03249.29163,E,2.919,173.61,011213,,,A*6A
$GPRMC,134147.00,A,3946.91342,N,03249.29179,E,2.914,171.80,011213,,,A*66
$GPRMC,134148.00,A,3946.91257,N,03249.29189,E,3.080,173.48,011213,,,A*60
$GPRMC,134149.00,A,3946.91171,N,03249.29203,E,2.867,171.84,011213,,,A*65
$GPRMC,134150.00,A,3946.91096,N,03249.29229,E,2.736,166.10,011213,,,A*6D
$GPRMC,134151.00,A,3946.91017,N,03249.29248,E,2.822,169.47,011213,,,A*65
$GPRMC,134152.00,A,3946.90938,N,03249.29260,E,2.682,171.07,011213,,,A*60
$GPRMC,134153.00,A,3946.90866,N,03249.29275,E,2.593,170.55,011213,,,A*6A
$GPRMC,134154.00,A,3946.90783,N,03249.29288,E,3.026,172.31,011213,,,A*61
$GPRMC,134155.00,A,3946.90702,N,03249.29298,E,2.787,173.32,011213,,,A*67
$GPRMC,134156.00,A,3946.90618,N,03249.29305,E,3.023,176.42,011213,,,A*61
$GPRMC,134157.00,A,3946.90498,N,03249.29299,E,4.460,179.90,011213,,,A*6A
$GPRMC,134158.00,A,3946.90401,N,03249.29307,E,3.282,177.63,011213,,,A*6C
$GPRMC,134159.00,A,3946.90342,N,03249.29322,E,2.091,175.08,011213,,,A*64
$GPRMC,134200.00,A,3946.90283,N,03249.29340,E,2.414,173.89,011213,,,A*65
$GPRMC,134201.00,A,3946.90218,N,03249.29343,E,2.641,175.87,011213,,,A*6F
$GPRMC,134202.00,A,3946.90146,N,03249.29348,E,2.506,178.43,011213,,,A*6A
$GPRMC,134203.00,A,3946.90080,N,03249.29362,E,2.751,174.86,011213,,,A*6D
$GPRMC,134204.00,A,3946.90017,N,03249.29380,E,2.402,173.31,011213,,,A*66
$GPRMC,134205.00,A,3946.89953,N,03249.29390,E,2.087,173.71,011213,,,A*6A
$GPRMC,134206.00,A,3946.89886,N,03249.29411,E,2.647,170.78,011213,,,A*6E
$GPRMC,134207.00,A,3946.89824,N,03249.29431,E,2.516,169.05,011213,,,A*60
$GPRMC,134208.00,A,3946.89754,N,03249.29456,E,2.486,166.22,011213,,,A*64
$GPRMC,134209.00,A,3946.89687,N,03249.29479,E,2.529,165.96,011213,,,A*6F
$GPRMC,134210.00,A,3946.89617,N,03249.29501,E,2.520,164.82,011213,,,A*6D
$GPRMC,134211.00,A,3946.89548,N,03249.29524,E,2.571,165.62,011213,,,A*69
$GPRMC,134212.00,A,3946.89474,N,03249.29533,E,2.572,172.69,011213,,,A*6C
$GPRMC,134213.00,A,3946.89397,N,03249.29541,E,2.902,173.07,011213,,,A*60
$GPRMC,134214.00,A,3946.89324,N,03249.29562,E,2.384,169.43,011213,,,A*61
$GPRMC,134215.00,A,3946.89254,N,03249.29585,E,2.569,166.15,011213,,,A*66
$GPRMC,134216.00,A,3946.89182,N,03249.29600,E,2.541,170.05,011213,,,A*6F
$GPRMC,134217.00,A,3946.89158,N,03249.29610,E,0.481,,011213,,,A*7A
$GPRMC,134218.00,A,3946.89105,N,03249.29623,E,2.198,171.00,011213,,,A*6B
$GPRMC,134219.00,A,3946.89037,N,03249.29643,E,2.370,169.04,011213,,,A*65
$GPRMC,134220.00,A,3946.88965,N,03249.29666,E,2.618,167.35,011213,,,A*60
$GPRMC,134221.00,A,3946.88895,N,03249.29679,E,2.441,171.03,011213,,,A*6D
$GPRMC,134222.00,A,3946.88826,N,03249.29687,E,2.436,173.82,011213,,,A*6C
$GPRMC,134223.00,A,3946.88754,N,03249.29703,E,2.427,172.27,011213,,,A*64
$GPRMC,134224.00,A,3946.88671,N,03249.29713,E,2.764,173.56,011213,,,A*67
$GPRMC,134225.00,A,3946.88601,N,03249.29740,E,2.461,165.43,011213,,,A*62
$GPRMC,134226.00,A,3946.88524,N,03249.29759,E,2.627,167.77,011213,,,A*68
$GPRMC,134227.00,A,3946.88459,N,03249.29783,E,2.397,166.53,011213,,,A*6C
$GPRMC,134228.00,A,3946.88395,N,03249.29807,E,2.418,164.58,011213,,,A*6E
$GPRMC,134229.00,A,3946.88332,N,03249.29845,E,2.455,159.50,011213,,,A*6B
$GPRMC,134230.00,A,3946.88263,N,03249.29864,E,2.557,167.12,011213,,,A*6D
$GPRMC,134231.00,A,3946.88190,N,03249.29880,E,2.803,169.38,011213,,,A*63
$GPRMC,134232.00,A,3946.88105,N,03249.29903,E,3.266,168.28,011213,,,A*6E
$GPRMC,134233.00,A,3946.88031,N,03249.29937,E,2.748,165.27,011213,,,A*64
$GPRMC,134234.00,A,3946.87982,N,03249.29964,E,1.487,165.70,011213,,,A*6A
$GPRMC,134235.00,A,3946.87904,N,03249.29994,E,2.824,159.95,011213,,,A*68
$GPRMC,134236.00,A,3946.87831,N,03249.30028,E,2.667,160.62,011213,,,A*61
$GPRMC,134237.00,A,3946.87759,N,03249.30057,E,2.648,163.06,011213,,,A*65
$GPRMC,134238.00,A,3946.87679,N,03249.30083,E,2.635,166.33,011213,,,A*69
$GPRMC,134239.00,A,3946.87605,N,03249.30110,E,2.544,166.70,011213,,,A*6A
$GPRMC,134240.00,A,3946.87527,N,03249.30124,E,2.802,170.08,011213,,,A*67
$GPRMC,134241.00,A,3946.87462,N,03249.30146,E,2.203,166.62,011213,,,A*62
$GPRMC,134242.00,A,3946.87386,N,03249.30150,E,2.916,182.40,011213,,,A*6E
$GPRMC,134243.00,A,3946.87302,N,03249.30151,E,3.019,181.90,011213,,,A*6B
$GPRMC,134244.00,A,3946.87223,N,03249.30161,E,2.732,176.54,011213,,,A*62
$GPRMC,134245.00,A,3946.87143,N,03249.30176,E,2.855,172.82,011213,,,A*61
$GPRMC,134246.00,A,3946.87057,N,03249.30192,E,3.071,171.70,011213,,,A*6D
$GPRMC,134247.00,A,3946.86972,N,03249.30205,E,2.934,176.30,011213,,,A*64
$GPRMC,134248.00,A,3946.86891,N,03249.30202,E,2.986,178.62,011213,,,A*60
$GPRMC,134249.00,A,3946.86815,N,03249.30204,E,2.884,178.46,011213,,,A*6E
$GPRMC,134250.00,A,3946.86717,N,03249.30201,E,3.614,181.90,011213,,,A*65
$GPRMC,134251.00,A,3946.86640,N,03249.30203,E,3.024,179.53,011213,,,A*68
$GPRMC,134252.00,A,3946.86553,N,03249.30209,E,3.333,177.57,011213,,,A*6F
$GPRMC,134253.00,A,3946.86464,N,03249.30227,E,3.057,173.85,011213,,,A*6D
$GPRMC,134254.00,A,3946.86384,N,03249.30252,E,3.106,169.28,011213,,,A*68
$GPRMC,134255.00,A,3946.86297,N,03249.30282,E,3.247,166.47,011213,,,A*67
$GPRMC,134256.00,A,3946.86221,N,03249.30321,E,2.882,162.28,011213,,,A*6E
$GPRMC,134257.00,A,3946.86144,N,03249.30356,E,2.885,161.80,011213,,,A*69
$GPRMC,134258.00,A,3946.86073,N,03249.30387,E,2.765,162.82,011213,,,A*6F
$GPRMC,134259.00,A,3946.85995,N,03249.30411,E,2.889,165.64,011213,,,A*66
$GPRMC,134300.00,A,3946.85918,N,03249.30438,E,2.771,165.68,011213,,,A*61
$GPRMC,134301.00,A,3946.85840,N,03249.30463,E,2.476,166.67,011213,,,A*6A
$GPRMC,134302.00,A,3946.85749,N,03249.30476,E,3.235,169.46,011213,,,A*67
$GPRMC,134303.00,A,3946.85642,N,03249.30493,E,3.965,170.86,011213,,,A*6D
$GPRMC,134304.00,A,3946.85562,N,03249.30527,E,2.905,164.22,011213,,,A*69
$GPRMC,134305.00,A,3946.85478,N,03249.30556,E,2.964,165.23,011213,,,A*63
$GPRMC,134306.00,A,3946.85400,N,03249.30578,E,2.868,167.11,011213,,,A*6D
$GPRMC,134307.00,A,3946.85323,N,03249.30595,E,2.948,168.60,011213,,,A*63
$GPRMC,134308.00,A,3946.85245,N,03249.30617,E,2.879,167.19,011213,,,A*66
$GPRMC,134309.00,A,3946.85192,N,03249.30641,E,1.972,166.23,011213,,,A*6C
$GPRMC,134310.00,A,3946.85124,N,03249.30670,E,2.829,164.15,011213,,,A*60
$GPRMC,134311.00,A,3946.85048,N,03249.30688,E,2.697,165.80,011213,,,A*6B
$GPRMC,134312.00,A,3946.84964,N,03249.30707,E,3.248,166.95,011213,,,A*68
$GPRMC,134313.00,A,3946.84877,N,03249.30725,E,3.030,169.52,011213,,,A*63
$GPRMC,134314.00,A,3946.84802,N,03249.30744,E,2.625,167.21,011213,,,A*68
$GPRMC,134315.00,A,3946.84727,N,03249.30768,E,2.836,164.88,011213,,,A*63
$GPRMC,134316.00,A,3946.84652,N,03249.30799,E,2.999,163.47,011213,,,A*6D
$GPRMC,134317.00,A,3946.84569,N,03249.30812,E,2.915,173.97,011213,,,A*63
$GPRMC,134318.00,A,3946.84495,N,03249.30816,E,2.779,174.67,011213,,,A*66
$GPRMC,134319.00,A,3946.84418,N,03249.30826,E,2.877,173.44,011213,,,A*66
$GPRMC,134320.00,A,3946.84345,N,03249.30844,E,2.663,168.93,011213,,,A*6C
$GPRMC,134321.00,A,3946.84265,N,03249.30860,E,2.655,170.54,011213,,,A*6F
$GPRMC,134322.00,A,3946.84185,N,03249.30867,E,3.042,173.21,011213,,,A*66
$GPRMC,134323.00,A,3946.84109,N,03249.30882,E,2.774,170.71,011213,,,A*6D
$GPRMC,134324.00,A,3946.84030,N,03249.30895,E,3.032,171.11,011213,,,A*64
$GPRMC,134325.00,A,3946.83959,N,03249.30905,E,2.665,171.62,011213,,,A*6D
$GPRMC,134326.00,A,3946.83881,N,03249.30915,E,2.900,173.94,011213,,,A*6C
$GPRMC,134327.00,A,3946.83815,N,03249.30917,E,2.598,180.29,011213,,,A*65
$GPRMC,134328.00,A,3946.83740,N,03249.30917,E,2.709,179.28,011213,,,A*68
$GPRMC,134329.00,A,3946.83658,N,03249.30914,E,2.690,181.08,011213,,,A*66
$GPRMC,134330.00,A,3946.83575,N,03249.30898,E,2.799,188.21,011213,,,A*6D
$GPRMC,134331.00,A,3946.83501,N,03249.30874,E,2.539,190.33,011213,,,A*6F
$GPRMC,134332.00,A,3946.83429,N,03249.30861,E,2.700,184.31,011213,,,A*6C
$GPRMC,134333.00,A,3946.83368,N,03249.30859,E,2.158,183.87,011213,,,A*65
$GPRMC,134334.00,A,3946.83315,N,03249.30878,E,1.910,167.86,011213,,,A*67
$GPRMC,134335.00,A,3946.83254,N,03249.30914,E,2.368,161.15,011213,,,A*63
$GPRMC,134336.00,A,3946.83193,N,03249.30947,E,2.268,155.15,011213,,,A*68
$GPRMC,134337.00,A,3946.83133,N,03249.30971,E,2.467,158.11,011213,,,A*66
$GPRMC,134338.00,A,3946.83072,N,03249.30991,E,2.308,163.57,011213,,,A*67
$GPRMC,134339.00,A,3946.83015,N,03249.31005,E,2.106,165.61,011213,,,A*6D
$GPRMC,134340.00,A,3946.82984,N,03249.30993,E,1.086,176.89,011213,,,A*6A
$GPRMC,134341.00,A,3946.82983,N,03249.30938,E,1.837,227.58,011213,,,A*64
$GPRMC,134342.00,A,3946.83004,N,03249.30847,E,2.896,279.33,011213,,,A*67
$GPRMC,134343.00,A,3946.83034,N,03249.30740,E,3.140,282.67,011213,,,A*6B
$GPRMC,134344.00,A,3946.83067,N,03249.30633,E,3.202,287.34,011213,,,A*69
$GPRMC,134345.00,A,3946.83095,N,03249.30529,E,3.057,289.15,011213,,,A*62
$GPRMC,134346.00,A,3946.83124,N,03249.30436,E,2.609,291.78,011213,,,A*6B
$GPRMC,134347.00,A,3946.83148,N,03249.30345,E,2.543,288.49,011213,,,A*64
$GPRMC,134348.00,A,3946.83162,N,03249.30248,E,2.719,281.96,011213,,,A*69
$GPRMC,134349.00,A,3946.83176,N,03249.30145,E,2.910,280.26,011213,,,A*6E
$GPRMC,134350.00,A,3946.83188,N,03249.30036,E,2.992,277.90,011213,,,A*6D
$GPRMC,134351.00,A,3946.83193,N,03249.29928,E,3.038,273.35,011213,,,A*6B
$GPRMC,134352.00,A,3946.83205,N,03249.29817,E,3.096,277.47,011213,,,A*6C
$GPRMC,134353.00,A,3946.83225,N,03249.29713,E,2.879,281.65,011213,,,A*65
$GPRMC,134354.00,A,3946.83238,N,03249.29610,E,2.931,278.68,011213,,,A*6A
$GPRMC,134355.00,A,3946.83247,N,03249.29508,E,2.774,278.64,011213,,,A*6A
$GPRMC,134356.00,A,3946.83264,N,03249.29403,E,3.024,281.77,011213,,,A*65
$GPRMC,134357.00,A,3946.83284,N,03249.29299,E,2.957,283.94,011213,,,A*6C
$GPRMC,134358.00,A,3946.83306,N,03249.29195,E,2.899,283.47,011213,,,A*6A
$GPRMC,134359.00,A,3946.83326,N,03249.29088,E,3.055,282.81,011213,,,A*66
$GPRMC,134400.00,A,3946.83340,N,03249.28983,E,2.925,281.15,011213,,,A*6F
$GPRMC,134401.00,A,3946.83357,N,03249.28875,E,3.059,281.97,011213,,,A*69
$GPRMC,134402.00,A,3946.83382,N,03249.28757,E,3.454,284.51,011213,,,A*6B
$GPRMC,134403.00,A,3946.83405,N,03249.28651,E,2.855,285.05,011213,,,A*69
$GPRMC,134404.00,A,3946.83426,N,03249.28552,E,2.889,285.71,011213,,,A*6D
$GPRMC,134405.00,A,3946.83446,N,03249.28450,E,2.951,284.72,011213,,,A*6F
$GPRMC,134406.00,A,3946.83467,N,03249.28348,E,2.948,284.34,011213,,,A*6B
$GPRMC,134407.00,A,3946.83488,N,03249.28250,E,2.739,283.96,011213,,,A*64
$GPRMC,134408.00,A,3946.83509,N,03249.28155,E,2.794,284.02,011213,,,A*68
$GPRMC,134409.00,A,3946.83529,N,03249.28053,E,2.917,283.63,011213,,,A*69
$GPRMC,134410.00,A,3946.83549,N,03249.27944,E,3.092,283.32,011213,,,A*66
$GPRMC,134411.00,A,3946.83572,N,03249.27837,E,2.965,283.82,011213,,,A*61
$GPRMC,134412.00,A,3946.83593,N,03249.27738,E,2.746,283.93,011213,,,A*62
$GPRMC,134413.00,A,3946.83614,N,03249.27639,E,2.831,284.18,011213,,,A*64
$GPRMC,134414.00,A,3946.83641,N,03249.27541,E,2.869,287.63,011213,,,A*6D
$GPRMC,134415.00,A,3946.83666,N,03249.27446,E,2.739,287.93,011213,,,A*6A
$GPRMC,134416.00,A,3946.83695,N,03249.27351,E,2.838,290.63,011213,,,A*63
$GPRMC,134417.00,A,3946.83731,N,03249.27261,E,2.719,294.59,011213,,,A*6E
$GPRMC,134418.00,A,3946.83774,N,03249.27204,E,2.031,302.92,011213,,,D*62
$GPRMC,134419.00,A,3946.83817,N,03249.27151,E,1.970,311.44,011213,,,D*6C
$GPRMC,134420.00,A,3946.83844,N,03249.27126,E,0.716,315.49,011213,,,D*66
$GPRMC,134421.00,A,3946.83826,N,03249.27125,E,1.290,211.51,011213,,,D*66
$GPRMC,134422.00,A,3946.83798,N,03249.27096,E,1.473,220.69,011213,,,D*64
$GPRMC,134423.00,A,3946.83787,N,03249.27007,E,3.021,247.79,011213,,,D*62
$GPRMC,134424.00,A,3946.83818,N,03249.26883,E,3.876,276.84,011213,,,D*63
$GPRMC,134425.00,A,3946.83864,N,03249.26748,E,4.154,287.37,011213,,,D*69
$GPRMC,134426.00,A,3946.83902,N,03249.26612,E,3.828,289.15,011213,,,D*6E
$GPRMC,134427.00,A,3946.83934,N,03249.26484,E,3.715,287.10,011213,,,D*6D
$GPRMC,134428.00,A,3946.83965,N,03249.26361,E,3.495,287.90,011213,,,D*69
$GPRMC,134429.00,A,3946.83996,N,03249.26236,E,3.566,286.90,011213,,,D*6B
$GPRMC,134430.00,A,3946.84029,N,03249.26100,E,3.934,286.43,011213,,,D*6A
$GPRMC,134431.00,A,3946.84063,N,03249.25962,E,3.888,287.18,011213,,,D*63
$GPRMC,134432.00,A,3946.84097,N,03249.25825,E,3.897,287.16,011213,,,D*69
$GPRMC,134433.00,A,3946.84127,N,03249.25691,E,3.840,285.38,011213,,,D*67
$GPRMC,134434.00,A,3946.84158,N,03249.25565,E,3.601,286.48,011213,,,D*6F
$GPRMC,134435.00,A,3946.84189,N,03249.25434,E,3.780,286.42,011213,,,D*65
$GPRMC,134436.00,A,3946.84216,N,03249.25307,E,3.510,284.92,011213,,,D*60
$GPRMC,134437.00,A,3946.84238,N,03249.25187,E,3.336,283.40,011213,,,D*6D
$GPRMC,134438.00,A,3946.84269,N,03249.25073,E,3.296,287.34,011213,,,D*60
$GPRMC,134439.00,A,3946.84302,N,03249.24960,E,3.296,287.99,011213,,,D*60
$GPRMC,134440.00,A,3946.84334,N,03249.24849,E,3.220,287.97,011213,,,D*62
$GPRMC,134441.00,A,3946.84364,N,03249.24742,E,3.044,288.43,011213,,,D*64
$GPRMC,134442.00,A,3946.84393,N,03249.24631,E,3.262,287.88,011213,,,D*64
$GPRMC,134443.00,A,3946.84423,N,03249.24519,E,3.155,287.76,011213,,,D*66
$GPRMC,134444.00,A,3946.84453,N,03249.24403,E,3.417,288.07,011213,,,D*66
$GPRMC,134445.00,A,3946.84488,N,03249.24287,E,3.451,290.16,011213,,,D*60
$GPRMC,134446.00,A,3946.84520,N,03249.24169,E,3.413,288.73,011213,,,D*6F
$GPRMC,134447.00,A,3946.84547,N,03249.24051,E,3.357,286.91,011213,,,D*60
$GPRMC,134448.00,A,3946.84576,N,03249.23939,E,3.247,288.05,011213,,,D*6E
$GPRMC,134449.00,A,3946.84606,N,03249.23825,E,3.402,287.36,011213,,,D*6F
$GPRMC,134450.00,A,3946.84634,N,03249.23710,E,3.338,286.89,011213,,,D*64
$GPRMC,134451.00,A,3946.84663,N,03249.23597,E,3.327,287.10,011213,,,D*65
$GPRMC,134452.00,A,3946.84692,N,03249.23485,E,3.214,287.08,011213,,,D*62
$GPRMC,134453.00,A,3946.84719,N,03249.23374,E,3.276,286.18,011213,,,D*6C
$GPRMC,134454.00,A,3946.84747,N,03249.23262,E,3.214,286.59,011213,,,D*67
$GPRMC,134455.00,A,3946.84779,N,03249.23152,E,3.262,288.53,011213,,,D*6E
$GPRMC,134456.00,A,3946.84809,N,03249.23043,E,3.182,287.92,011213,,,D*6B
$GPRMC,134457.00,A,3946.84835,N,03249.22935,E,3.085,286.65,011213,,,D*63
$GPRMC,134458.00,A,3946.84861,N,03249.22829,E,3.168,287.77,011213,,,D*61
$GPRMC,134459.00,A,3946.84885,N,03249.22718,E,3.166,284.04,011213,,,D*6E
$GPRMC,134500.00,A,3946.84908,N,03249.22606,E,3.177,284.33,011213,,,D*6D
$GPRMC,134501.00,A,3946.84932,N,03249.22501,E,3.025,285.66,011213,,,D*66
$GPRMC,134502.00,A,3946.84959,N,03249.22400,E,2.932,287.07,011213,,,D*63
$GPRMC,134503.00,A,3946.84985,N,03249.22298,E,3.030,286.58,011213,,,D*65
$GPRMC,134504.00,A,3946.85013,N,03249.22196,E,2.983,287.89,011213,,,D*65
$GPRMC,134505.00,A,3946.85040,N,03249.22094,E,2.962,287.44,011213,,,D*6F
$GPRMC,134506.00,A,3946.85064,N,03249.21994,E,2.875,287.15,011213,,,D*63
$GPRMC,134507.00,A,3946.85095,N,03249.21900,E,2.795,290.86,011213,,,D*6C
$GPRMC,134508.00,A,3946.85124,N,03249.21805,E,2.863,290.22,011213,,,D*64
$GPRMC,134509.00,A,3946.85153,N,03249.21711,E,2.719,290.08,011213,,,D*65
$GPRMC,134510.00,A,3946.85183,N,03249.21619,E,2.753,291.06,011213,,,D*68
$GPRMC,134511.00,A,3946.85216,N,03249.21522,E,2.939,291.71,011213,,,D*6F
$GPRMC,134512.00,A,3946.85245,N,03249.21422,E,2.874,290.23,011213,,,D*65
$GPRMC,134513.00,A,3946.85274,N,03249.21332,E,2.657,291.57,011213,,,D*6D
$GPRMC,134514.00,A,3946.85304,N,03249.21236,E,2.924,291.21,011213,,,D*63
$GPRMC,134515.00,A,3946.85331,N,03249.21134,E,2.983,289.63,011213,,,D*67
$GPRMC,134516.00,A,3946.85355,N,03249.21034,E,2.846,288.22,011213,,,D*6B
$GPRMC,134517.00,A,3946.85380,N,03249.20936,E,2.842,288.66,011213,,,D*6C
$GPRMC,134518.00,A,3946.85409,N,03249.20834,E,2.923,289.39,011213,,,D*6B
$GPRMC,134519.00,A,3946.85438,N,03249.20734,E,2.883,289.78,011213,,,D*69
$GPRMC,134520.00,A,3946.85464,N,03249.20637,E,2.864,289.93,011213,,,D*64
$GPRMC,134521.00,A,3946.85494,N,03249.20536,E,2.960,290.39,011213,,,D*65
$GPRMC,134522.00,A,3946.85528,N,03249.20439,E,2.832,293.10,011213,,,D*60
$GPRMC,134523.00,A,3946.85559,N,03249.20340,E,2.992,292.52,011213,,,D*62
$GPRMC,134524.00,A,3946.85592,N,03249.20238,E,3.009,292.58,011213,,,D*6C
$GPRMC,134525.00,A,3946.85623,N,03249.20132,E,3.108,291.18,011213,,,D*6A
$GPRMC,134526.00,A,3946.85651,N,03249.20025,E,3.068,290.14,011213,,,D*61
$GPRMC,134527.00,A,3946.85677,N,03249.19923,E,2.895,289.04,011213,,,D*63
$GPRMC,134528.00,A,3946.85704,N,03249.19822,E,2.956,289.00,011213,,,D*63
$GPRMC,134529.00,A,3946.85735,N,03249.19723,E,2.940,291.83,011213,,,D*6B
$GPRMC,134530.00,A,3946.85763,N,03249.19619,E,2.987,290.28,011213,,,D*63
$GPRMC,134531.00,A,3946.85779,N,03249.19529,E,2.682,289.58,011213,,,D*6C
$GPRMC,134532.00,A,3946.85801,N,03249.19436,E,2.838,289.33,011213,,,D*62
$GPRMC,134533.00,A,3946.85827,N,03249.19337,E,2.977,290.33,011213,,,D*63
$GPRMC,134534.00,A,3946.85851,N,03249.19230,E,3.168,287.79,011213,,,D*6C
$GPRMC,134535.00,A,3946.85874,N,03249.19122,E,3.075,287.53,011213,,,D*6F
$GPRMC,134536.00,A,3946.85900,N,03249.19025,E,2.999,290.64,011213,,,D*60
$GPRMC,134537.00,A,3946.85932,N,03249.18927,E,2.995,292.76,011213,,,D*67
$GPRMC,134538.00,A,3946.85966,N,03249.18824,E,3.123,291.78,011213,,,D*62
$GPRMC,134539.00,A,3946.85998,N,03249.18722,E,3.046,292.12,011213,,,D*66
$GPRMC,134540.00,A,3946.86026,N,03249.18616,E,3.114,290.74,011213,,,D*65
$GPRMC,134541.00,A,3946.86055,N,03249.18512,E,3.176,289.31,011213,,,D*6A
$GPRMC,134542.00,A,3946.86082,N,03249.18415,E,2.975,292.06,011213,,,D*61
$GPRMC,134543.00,A,3946.86101,N,03249.18331,E,2.712,290.15,011213,,,D*64
$GPRMC,134544.00,A,3946.86123,N,03249.18230,E,3.066,288.21,011213,,,D*68
$GPRMC,134545.00,A,3946.86147,N,03249.18128,E,2.959,288.12,011213,,,D*65
$GPRMC,134546.00,A,3946.86172,N,03249.18024,E,3.045,287.31,011213,,,D*66
$GPRMC,134547.00,A,3946.86195,N,03249.17922,E,2.949,287.95,011213,,,D*64
$GPRMC,134548.00,A,3946.86207,N,03249.17820,E,2.848,283.10,011213,,,D*69
$GPRMC,134549.00,A,3946.86209,N,03249.17732,E,2.818,282.11,011213,,,D*6F
$GPRMC,134550.00,A,3946.86227,N,03249.17636,E,3.006,286.08,011213,,,D*64
$GPRMC,134551.00,A,3946.86252,N,03249.17532,E,3.138,288.21,011213,,,D*69
$GPRMC,134552.00,A,3946.86270,N,03249.17394,E,4.609,284.31,011213,,,D*6F
$GPRMC,134553.00,A,3946.86296,N,03249.17257,E,4.267,287.84,011213,,,D*69
$GPRMC,134554.00,A,3946.86315,N,03249.17153,E,2.930,288.11,011213,,,D*6F
$GPRMC,134555.00,A,3946.86339,N,03249.17063,E,2.772,290.14,011213,,,D*66
$GPRMC,134556.00,A,3946.86356,N,03249.16970,E,2.758,288.46,011213,,,D*60
$GPRMC,134557.00,A,3946.86368,N,03249.16876,E,3.110,285.34,011213,,,D*68
$GPRMC,134558.00,A,3946.86384,N,03249.16782,E,3.013,286.12,011213,,,D*64
$GPRMC,134559.00,A,3946.86407,N,03249.16680,E,3.000,287.35,011213,,,D*6C
$GPRMC,134600.00,A,3946.86433,N,03249.16580,E,3.049,289.45,011213,,,D*63
$GPRMC,134601.00,A,3946.86454,N,03249.16483,E,2.891,288.94,011213,,,D*60
$GPRMC,134602.00,A,3946.86480,N,03249.16383,E,2.983,289.31,011213,,,D*61
$GPRMC,134603.00,A,3946.86503,N,03249.16284,E,2.826,288.75,011213,,,D*63
$GPRMC,134604.00,A,3946.86528,N,03249.16186,E,2.927,289.44,011213,,,D*6F
$GPRMC,134605.00,A,3946.86553,N,03249.16083,E,3.028,288.39,011213,,,D*6A
$GPRMC,134606.00,A,3946.86565,N,03249.15979,E,3.013,282.86,011213,,,D*65
$GPRMC,134607.00,A,3946.86585,N,03249.15877,E,2.934,286.13,011213,,,D*60
$GPRMC,134608.00,A,3946.86596,N,03249.15791,E,2.866,288.03,011213,,,D*63
$GPRMC,134609.00,A,3946.86613,N,03249.15697,E,3.094,288.28,011213,,,D*66
$GPRMC,134610.00,A,3946.86644,N,03249.15599,E,2.988,291.84,011213,,,D*6A
$GPRMC,134611.00,A,3946.86667,N,03249.15504,E,2.951,290.66,011213,,,D*67
$GPRMC,134612.00,A,3946.86691,N,03249.15407,E,2.835,289.40,011213,,,D*60
$GPRMC,134613.00,A,3946.86708,N,03249.15307,E,2.849,285.77,011213,,,D*64
$GPRMC,134614.00,A,3946.86734,N,03249.15215,E,2.809,289.78,011213,,,D*69
$GPRMC,134615.00,A,3946.86767,N,03249.15123,E,2.925,294.00,011213,,,D*64
$GPRMC,134616.00,A,3946.86795,N,03249.15030,E,2.785,291.66,011213,,,D*68
$GPRMC,134617.00,A,3946.86824,N,03249.14939,E,2.852,291.97,011213,,,D*66
$GPRMC,134618.00,A,3946.86849,N,03249.14848,E,2.776,291.45,011213,,,D*63
$GPRMC,134619.00,A,3946.86876,N,03249.14761,E,2.712,292.00,011213,,,D*6A
$GPRMC,134620.00,A,3946.86900,N,03249.14676,E,2.933,293.22,011213,,,D*6B
$GPRMC,134621.00,A,3946.86924,N,03249.14591,E,2.716,293.16,011213,,,D*68
$GPRMC,134622.00,A,3946.86950,N,03249.14503,E,2.824,291.93,011213,,,D*62
$GPRMC,134623.00,A,3946.86978,N,03249.14411,E,2.792,292.56,011213,,,D*63
$GPRMC,134624.00,A,3946.87013,N,03249.14316,E,2.880,294.49,011213,,,D*65
$GPRMC,134625.00,A,3946.87055,N,03249.14220,E,2.928,297.56,011213,,,D*6C
$GPRMC,134626.00,A,3946.87086,N,03249.14133,E,2.562,296.60,011213,,,D*66
$GPRMC,134627.00,A,3946.87116,N,03249.14042,E,2.769,294.99,011213,,,D*65
$GPRMC,134628.00,A,3946.87148,N,03249.13943,E,3.018,294.21,011213,,,D*6D
$GPRMC,134629.00,A,3946.87181,N,03249.13848,E,3.052,296.98,011213,,,D*6D
$GPRMC,134630.00,A,3946.87226,N,03249.13756,E,2.984,297.77,011213,,,D*68
$GPRMC,134631.00,A,3946.87254,N,03249.13659,E,2.849,292.50,011213,,,D*62
$GPRMC,134632.00,A,3946.87278,N,03249.13556,E,2.970,288.96,011213,,,D*69
$GPRMC,134633.00,A,3946.87307,N,03249.13440,E,3.184,289.03,011213,,,D*68
$GPRMC,134634.00,A,3946.87340,N,03249.13330,E,3.121,290.92,011213,,,D*63
$GPRMC,134635.00,A,3946.87369,N,03249.13229,E,3.032,290.79,011213,,,D*66
$GPRMC,134636.00,A,3946.87384,N,03249.13126,E,2.918,287.09,011213,,,D*6B
$GPRMC,134637.00,A,3946.87410,N,03249.13024,E,2.979,289.76,011213,,,D*62
$GPRMC,134638.00,A,3946.87456,N,03249.12900,E,3.995,293.70,011213,,,D*6F
$GPRMC,134639.00,A,3946.87482,N,03249.12806,E,2.394,291.31,011213,,,D*6D
$GPRMC,134640.00,A,3946.87514,N,03249.12774,E,1.373,307.50,011213,,,D*64
$GPRMC,134641.00,A,3946.87529,N,03249.12773,E,0.704,,011213,,,D*76
$GPRMC,134642.00,A,3946.87553,N,03249.12796,E,1.251,356.51,011213,,,D*6D
$GPRMC,134643.00,A,3946.87600,N,03249.12831,E,1.965,21.11,011213,,,D*50
$GPRMC,134644.00,A,3946.87660,N,03249.12857,E,2.540,16.54,011213,,,D*5C
$GPRMC,134645.00,A,3946.87747,N,03249.12871,E,2.965,13.01,011213,,,D*53
$GPRMC,134646.00,A,3946.87836,N,03249.12869,E,2.984,1.09,011213,,,D*64
$GPRMC,134647.00,A,3946.87913,N,03249.12859,E,2.852,356.06,011213,,,D*64
$GPRMC,134648.00,A,3946.88000,N,03249.12830,E,3.032,346.71,011213,,,D*6E
$GPRMC,134649.00,A,3946.88091,N,03249.12825,E,3.278,355.45,011213,,,D*6A
$GPRMC,134650.00,A,3946.88178,N,03249.12818,E,2.934,355.02,011213,,,D*6B
$GPRMC,134651.00,A,3946.88263,N,03249.12807,E,2.713,354.82,011213,,,D*6F
$GPRMC,134652.00,A,3946.88354,N,03249.12787,E,3.278,351.13,011213,,,D*6A
$GPRMC,134653.00,A,3946.88444,N,03249.12773,E,3.176,352.60,011213,,,D*6C
$GPRMC,134654.00,A,3946.88526,N,03249.12760,E,2.962,351.48,011213,,,D*69
$GPRMC,134655.00,A,3946.88610,N,03249.12742,E,2.831,351.82,011213,,,D*6F
$GPRMC,134656.00,A,3946.88696,N,03249.12717,E,3.009,348.60,011213,,,D*64
$GPRMC,134657.00,A,3946.88787,N,03249.12696,E,3.140,350.23,011213,,,D*6E
$GPRMC,134658.00,A,3946.88878,N,03249.12678,E,3.182,350.69,011213,,,D*6E
$GPRMC,134659.00,A,3946.88953,N,03249.12679,E,3.213,351.28,011213,,,D*69
$GPRMC,134700.00,A,3946.89040,N,03249.12659,E,3.120,350.05,011213,,,D*61
$GPRMC,134701.00,A,3946.89136,N,03249.12640,E,3.434,352.02,011213,,,D*6D
$GPRMC,134702.00,A,3946.89232,N,03249.12612,E,3.395,347.96,011213,,,D*6B
$GPRMC,134703.00,A,3946.89322,N,03249.12587,E,3.327,347.11,011213,,,D*63
$GPRMC,134704.00,A,3946.89413,N,03249.12558,E,3.298,346.99,011213,,,D*67
$GPRMC,134705.00,A,3946.89505,N,03249.12537,E,3.366,350.22,011213,,,D*6E
$GPRMC,134706.00,A,3946.89602,N,03249.12514,E,3.531,349.07,011213,,,D*63
$GPRMC,134707.00,A,3946.89687,N,03249.12502,E,3.123,351.36,011213,,,D*64
$GPRMC,134708.00,A,3946.89775,N,03249.12482,E,3.295,350.11,011213,,,D*64
$GPRMC,134709.00,A,3946.89858,N,03249.12457,E,3.099,346.94,011213,,,D*69
$GPRMC,134710.00,A,3946.89943,N,03249.12431,E,3.253,345.29,011213,,,D*6B
$GPRMC,134711.00,A,3946.90035,N,03249.12393,E,3.408,342.79,011213,,,D*6F
$GPRMC,134712.00,A,3946.90122,N,03249.12347,E,3.160,338.73,011213,,,D*6E
$GPRMC,134713.00,A,3946.90209,N,03249.12321,E,3.391,345.64,011213,,,D*65
$GPRMC,134714.00,A,3946.90293,N,03249.12309,E,3.033,348.33,011213,,,D*6F
$GPRMC,134715.00,A,3946.90395,N,03249.12281,E,4.253,344.37,011213,,,D*63
$GPRMC,134716.00,A,3946.90482,N,03249.12259,E,2.785,346.77,011213,,,D*6A
$GPRMC,134717.00,A,3946.90573,N,03249.12232,E,3.617,346.83,011213,,,D*69
$GPRMC,134718.00,A,3946.90666,N,03249.12195,E,3.386,343.66,011213,,,D*6C
$GPRMC,134719.00,A,3946.90754,N,03249.12146,E,3.302,338.35,011213,,,D*65
$GPRMC,134720.00,A,3946.90846,N,03249.12115,E,3.413,344.68,011213,,,D*61
$GPRMC,134721.00,A,3946.90939,N,03249.12121,E,3.273,354.07,011213,,,D*66
$GPRMC,134722.00,A,3946.91015,N,03249.12176,E,3.121,13.97,011213,,,D*5C
$GPRMC,134723.00,A,3946.91058,N,03249.12271,E,3.081,45.81,011213,,,D*5F
$GPRMC,134724.00,A,3946.91077,N,03249.12386,E,2.914,55.58,011213,,,D*5D
$GPRMC,134725.00,A,3946.91091,N,03249.12513,E,3.174,57.71,011213,,,D*58
$GPRMC,134726.00,A,3946.91120,N,03249.12626,E,3.054,57.28,011213,,,D*5A
$GPRMC,134727.00,A,3946.91150,N,03249.12733,E,3.025,59.60,011213,,,D*5D
$GPRMC,134728.00,A,3946.91185,N,03249.12833,E,2.952,60.11,011213,,,D*51
$GPRMC,134729.00,A,3946.91231,N,03249.12926,E,3.064,58.25,011213,,,D*58
$GPRMC,134730.00,A,3946.91265,N,03249.13033,E,3.211,65.70,011213,,,D*53
$GPRMC,134731.00,A,3946.91292,N,03249.13140,E,2.962,67.85,011213,,,D*59
$GPRMC,134732.00,A,3946.91322,N,03249.13244,E,3.114,66.22,011213,,,D*53
$GPRMC,134733.00,A,3946.91352,N,03249.13349,E,3.084,67.63,011213,,,D*55
$GPRMC,134734.00,A,3946.91377,N,03249.13457,E,2.994,69.03,011213,,,D*5C
$GPRMC,134735.00,A,3946.91391,N,03249.13575,E,3.248,75.73,011213,,,D*55
$GPRMC,134736.00,A,3946.91398,N,03249.13692,E,3.314,80.22,011213,,,D*53
$GPRMC,134737.00,A,3946.91387,N,03249.13807,E,3.212,89.20,011213,,,D*52
$GPRMC,134738.00,A,3946.91365,N,03249.13925,E,3.429,97.44,011213,,,D*53
$GPRMC,134739.00,A,3946.91339,N,03249.14035,E,3.232,102.98,011213,,,D*64
$GPRMC,134740.00,A,3946.91310,N,03249.14149,E,3.180,106.14,011213,,,D*61
$GPRMC,134741.00,A,3946.91287,N,03249.14264,E,3.245,105.74,011213,,,D*6C
$GPRMC,134742.00,A,3946.91266,N,03249.14375,E,3.131,104.88,011213,,,D*63
$GPRMC,134743.00,A,3946.91238,N,03249.14481,E,3.201,107.51,011213,,,D*62
$GPRMC,134744.00,A,3946.91210,N,03249.14584,E,3.004,107.58,011213,,,D*65
$GPRMC,134745.00,A,3946.91184,N,03249.14687,E,2.867,107.13,011213,,,D*69
$GPRMC,134746.00,A,3946.91160,N,03249.14789,E,3.057,108.09,011213,,,D*61
$GPRMC,134747.00,A,3946.91134,N,03249.14889,E,2.937,108.24,011213,,,D*6F
$GPRMC,134748.00,A,3946.91104,N,03249.14994,E,3.276,110.53,011213,,,D*68
$GPRMC,134749.00,A,3946.91071,N,03249.15098,E,3.143,111.50,011213,,,D*69
$GPRMC,134750.00,A,3946.91042,N,03249.15199,E,2.945,110.07,011213,,,D*6D
$GPRMC,134751.00,A,3946.91014,N,03249.15310,E,3.081,109.34,011213,,,D*64
$GPRMC,134752.00,A,3946.90983,N,03249.15425,E,3.332,108.79,011213,,,D*63
$GPRMC,134753.00,A,3946.90954,N,03249.15546,E,3.324,107.61,011213,,,D*6D
$GPRMC,134754.00,A,3946.90918,N,03249.15653,E,3.170,111.95,011213,,,D*6A
$GPRMC,134755.00,A,3946.90885,N,03249.15755,E,2.906,111.06,011213,,,D*6B
$GPRMC,134756.00,A,3946.90858,N,03249.15865,E,3.157,108.87,011213,,,D*68
$GPRMC,134757.00,A,3946.90835,N,03249.15983,E,3.147,105.77,011213,,,D*68
$GPRMC,134758.00,A,3946.90812,N,03249.16090,E,3.006,105.56,011213,,,D*6D
$GPRMC,134759.00,A,3946.90787,N,03249.16194,E,3.114,106.04,011213,,,D*6C
$GPRMC,134800.00,A,3946.90757,N,03249.16302,E,3.141,108.65,011213,,,D*66
$GPRMC,134801.00,A,3946.90735,N,03249.16409,E,3.107,107.23,011213,,,D*60
$GPRMC,134802.00,A,3946.90716,N,03249.16514,E,2.940,106.05,011213,,,D*60
$GPRMC,134803.00,A,3946.90695,N,03249.16621,E,3.030,105.82,011213,,,D*6D
$GPRMC,134804.00,A,3946.90674,N,03249.16730,E,3.076,104.92,011213,,,D*66
$GPRMC,134805.00,A,3946.90649,N,03249.16837,E,3.141,105.82,011213,,,D*64
$GPRMC,134806.00,A,3946.90629,N,03249.16942,E,2.996,103.43,011213,,,D*6A
$GPRMC,134807.00,A,3946.90606,N,03249.17056,E,3.336,103.80,011213,,,D*65
$GPRMC,134808.00,A,3946.90587,N,03249.17162,E,3.043,103.29,011213,,,D*64
$GPRMC,134809.00,A,3946.90568,N,03249.17278,E,3.212,103.43,011213,,,D*66
$GPRMC,134810.00,A,3946.90544,N,03249.17395,E,3.247,105.38,011213,,,D*68
$GPRMC,134811.00,A,3946.90516,N,03249.17507,E,3.204,105.92,011213,,,D*64
$GPRMC,134812.00,A,3946.90487,N,03249.17618,E,3.155,108.38,011213,,,D*69
$GPRMC,134813.00,A,3946.90451,N,03249.17724,E,3.109,110.70,011213,,,D*61
$GPRMC,134814.00,A,3946.90425,N,03249.17839,E,3.345,106.59,011213,,,D*60
$GPRMC,134815.00,A,3946.90403,N,03249.17952,E,3.066,106.11,011213,,,D*67
$GPRMC,134816.00,A,3946.90378,N,03249.18035,E,2.196,106.58,011213,,,D*6A
$GPRMC,134817.00,A,3946.90354,N,03249.18099,E,2.051,108.21,011213,,,D*69
$GPRMC,134818.00,A,3946.90328,N,03249.18170,E,2.368,108.87,011213,,,D*6E
$GPRMC,134819.00,A,3946.90298,N,03249.18267,E,3.134,108.21,011213,,,D*66
$GPRMC,134820.00,A,3946.90258,N,03249.18356,E,2.601,112.38,011213,,,D*60
$GPRMC,134821.00,A,3946.90217,N,03249.18463,E,3.619,110.59,011213,,,D*66
$GPRMC,134822.00,A,3946.90233,N,03249.18593,E,3.736,92.47,011213,,,D*55
$GPRMC,134823.00,A,3946.90221,N,03249.18708,E,3.193,94.99,011213,,,D*5B
$GPRMC,134824.00,A,3946.90195,N,03249.18811,E,3.121,100.27,011213,,,D*67
$GPRMC,134825.00,A,3946.90152,N,03249.18914,E,3.144,105.72,011213,,,D*6F
$GPRMC,134826.00,A,3946.90129,N,03249.19002,E,2.396,110.39,011213,,,D*68
$GPRMC,134827.00,A,3946.90109,N,03249.19069,E,2.015,111.37,011213,,,D*61
$GPRMC,134828.00,A,3946.90084,N,03249.19134,E,2.095,114.12,011213,,,D*69
$GPRMC,134829.00,A,3946.90052,N,03249.19209,E,2.611,108.06,011213,,,D*6C
$GPRMC,134830.00,A,3946.90036,N,03249.19321,E,3.288,109.61,011213,,,D*68
$GPRMC,134831.00,A,3946.90010,N,03249.19435,E,3.277,110.97,011213,,,D*6E
$GPRMC,134832.00,A,3946.89980,N,03249.19537,E,2.944,112.36,011213,,,D*65
$GPRMC,134833.00,A,3946.89953,N,03249.19643,E,3.158,110.19,011213,,,D*61
$GPRMC,134834.00,A,3946.89920,N,03249.19749,E,3.150,110.98,011213,,,D*68
$GPRMC,134835.00,A,3946.89885,N,03249.19853,E,3.183,112.26,011213,,,D*6A
$GPRMC,134836.00,A,3946.89855,N,03249.19961,E,3.182,112.84,011213,,,D*6D
$GPRMC,134837.00,A,3946.89822,N,03249.20068,E,3.203,114.06,011213,,,D*60
$GPRMC,134838.00,A,3946.89799,N,03249.20182,E,3.237,109.98,011213,,,D*69
$GPRMC,134839.00,A,3946.89773,N,03249.20301,E,3.478,109.65,011213,,,D*6A
$GPRMC,134840.00,A,3946.89750,N,03249.20420,E,3.303,107.77,011213,,,D*67
$GPRMC,134841.00,A,3946.89726,N,03249.20519,E,3.088,108.67,011213,,,D*62
$GPRMC,134842.00,A,3946.89697,N,03249.20631,E,3.518,108.40,011213,,,D*6A
$GPRMC,134843.00,A,3946.89672,N,03249.20746,E,3.312,110.04,011213,,,D*64
$GPRMC,134844.00,A,3946.89644,N,03249.20854,E,3.222,108.52,011213,,,D*62
$GPRMC,134845.00,A,3946.89618,N,03249.20951,E,3.070,110.69,011213,,,D*6A
$GPRMC,134846.00,A,3946.89584,N,03249.21057,E,3.214,111.48,011213,,,D*63
$GPRMC,134847.00,A,3946.89558,N,03249.21173,E,3.181,109.37,011213,,,D*6A
$GPRMC,134848.00,A,3946.89533,N,03249.21277,E,3.074,110.21,011213,,,D*6B
$GPRMC,134849.00,A,3946.89488,N,03249.21388,E,3.954,,011213,,,D*7C
$GPRMC,134850.00,A,3946.89461,N,03249.21476,E,2.677,,011213,,,D*7A
$GPRMC,134851.00,A,3946.89482,N,03249.21595,E,3.120,,011213,,,D*7E
$GPRMC,134852.00,A,3946.89483,N,03249.21689,E,2.695,,011213,,,D*7A
$GPRMC,134853.00,A,3946.89467,N,03249.21759,E,1.756,,011213,,,D*70
$GPRMC,134854.00,A,3946.89466,N,03249.21881,E,2.913,,011213,,,D*70
$GPRMC,134855.00,A,3946.89420,N,03249.21953,E,1.899,,011213,,,D*7D
$GPRMC,134856.00,A,3946.89347,N,03249.22019,E,1.779,,011213,,,D*7D
$GPRMC,134857.00,A,3946.89283,N,03249.22098,E,2.859,105.20,011213,,,D*6A
$GPRMC,134858.00,A,3946.89192,N,03249.22219,E,3.056,98.36,011213,,,D*59
$GPRMC,134859.00,A,3946.89169,N,03249.22298,E,2.784,102.85,011213,,,D*66
$GPRMC,134900.00,A,3946.89156,N,03249.22398,E,3.111,109.54,011213,,,D*6A
$GPRMC,134901.00,A,3946.89144,N,03249.22505,E,2.554,109.44,011213,,,D*6F
$GPRMC,134902.00,A,3946.89135,N,03249.22562,E,0.922,109.59,011213,,,D*68
$GPRMC,134903.00,A,3946.89143,N,03249.22596,E,0.053,,011213,,,D*76
$GPRMC,134904.00,A,3946.89124,N,03249.22629,E,1.076,111.07,011213,,,D*69
$GPRMC,134905.00,A,3946.89085,N,03249.22698,E,2.457,115.09,011213,,,D*66
$GPRMC,134906.00,A,3946.89049,N,03249.22799,E,2.682,112.91,011213,,,D*69
$GPRMC,134907.00,A,3946.89015,N,03249.22895,E,2.807,110.05,011213,,,D*6E
$GPRMC,134908.00,A,3946.88986,N,03249.23003,E,2.619,108.46,011213,,,D*6A
$GPRMC,134909.00,A,3946.88951,N,03249.23106,E,2.833,110.55,011213,,,D*68
$GPRMC,134910.00,A,3946.88916,N,03249.23217,E,2.936,109.93,011213,,,D*66
$GPRMC,134911.00,A,3946.88883,N,03249.23317,E,2.832,108.57,011213,,,D*67
$GPRMC,134912.00,A,3946.88847,N,03249.23414,E,2.842,108.74,011213,,,D*6E
$GPRMC,134913.00,A,3946.88813,N,03249.23511,E,2.868,109.68,011213,,,D*6E
$GPRMC,134914.00,A,3946.88784,N,03249.23611,E,2.852,107.72,011213,,,D*67
$GPRMC,134915.00,A,3946.88755,N,03249.23706,E,2.576,108.29,011213,,,D*67
$GPRMC,134916.00,A,3946.88720,N,03249.23789,E,2.490,115.31,011213,,,D*6D
$GPRMC,134917.00,A,3946.88698,N,03249.23878,E,2.658,,011213,,,D*70
$GPRMC,134918.00,A,3946.88673,N,03249.23987,E,2.997,,011213,,,D*77
$GPRMC,134919.00,A,3946.88721,N,03249.24098,E,3.305,,011213,,,D*70
$GPRMC,134920.00,A,3946.88691,N,03249.24208,E,3.040,111.02,011213,,,D*64
$GPRMC,134921.00,A,3946.88656,N,03249.24316,E,3.039,109.91,011213,,,D*6D
$GPRMC,134922.00,A,3946.88612,N,03249.24428,E,3.219,111.59,011213,,,D*69
$GPRMC,134923.00,A,3946.88574,N,03249.24539,E,3.282,112.47,011213,,,D*64
$GPRMC,134924.00,A,3946.88489,N,03249.24656,E,4.060,124.90,011213,,,D*6C
$GPRMC,134925.00,A,3946.88460,N,03249.24760,E,3.229,,011213,,,D*76
$GPRMC,134926.00,A,3946.88421,N,03249.24841,E,2.819,116.60,011213,,,D*6A
$GPRMC,134927.00,A,3946.88359,N,03249.24979,E,2.980,110.03,011213,,,D*6B
$GPRMC,134928.00,A,3946.88350,N,03249.25067,E,2.925,110.38,011213,,,D*6D
$GPRMC,134929.00,A,3946.88316,N,03249.25176,E,2.907,111.33,011213,,,D*65
$GPRMC,134930.00,A,3946.88293,N,03249.25267,E,2.817,112.00,011213,,,D*61
$GPRMC,134931.00,A,3946.88285,N,03249.25360,E,2.711,111.65,011213,,,D*68
$GPRMC,134932.00,A,3946.88266,N,03249.25457,E,2.746,109.04,011213,,,D*69
$GPRMC,134933.00,A,3946.88259,N,03249.25516,E,1.705,107.72,011213,,,D*6B
$GPRMC,134934.00,A,3946.88246,N,03249.25553,E,0.573,,011213,,,D*7C
$GPRMC,134935.00,A,3946.88247,N,03249.25558,E,0.039,,011213,,,D*7C
